id,alt,iata,icao,lat,lon,name,size,city_id
0014bf2d-c79b-4fd7-84de-dea733903bc4,2010,TGI,SPGM,-9.28916,-76.004997,Tingo Maria Airport,171,ba562d33-ac29-4b4c-86d9-50405090b294
00173fd5-59cb-440c-967e-149cd554ef3f,744,LCK,KLCK,39.813782,-82.927803,Columbus Rickenbacker International Airport,3646,5899b022-0d1f-423d-96e4-63ef0aababef
0020f8f1-b8d5-48a0-bab8-52aec8c0e4d4,2697,PTO,SBPO,-26.2178,-52.694302,Pato Branco Airport,449,f6b315ba-8149-4b63-8501-2ba9b57776de
0024d64c-ebdb-4d7f-b058-7324b9fe8128,1056,GEL,SBNM,-28.281601,-54.169102,Santo Angelo Airport,394,85ce8123-62a7-4f78-9dbb-5f7004e2dede
002f2694-60b7-4463-a0b9-19a462e6d732,343,OLP,YOLD,-30.485001,136.876663,Olympic Dam Airport,1413,d7929717-d2af-4d25-b710-a6dc0fc6634f
00359c55-0e46-4974-bdf0-f258efed98af,160,ONP,KONP,44.580276,-124.057777,Newport Municipal Airport,1321,a2df3dc8-182d-4d6b-a971-03db92edbd49
0046b241-067b-4919-a08a-7839994e9a4f,270,OZP,LEMO,37.174774,-5.615983,Moron Air Base,62,c2a118d9-cf9e-40f0-8c40-eeb743c381e6
005bfb14-84d4-4d8f-8c4c-412db9ea6d0e,26,BWB,YBWX,-20.864401,115.405998,Barrow Island Airport,588,5d33b602-1b2e-46e5-821d-b417ab040a1e
0069187f-292b-4143-9d95-8ddd42093900,219,SLY,USDD,66.590752,66.611038,Salekhard Airport,2273,5cd468bc-0753-4976-a212-d673d4c7f0a4
007caf56-baaa-487a-9f8d-47ba1642c168,146,BWI,KBWI,39.175362,-76.668297,Baltimore Washington International Airport,114298,ee34d06e-3c87-4a5e-a92d-342c873ad349
007cebc2-693c-4d20-b921-612cf43ecf4e,16,SOJ,ENSR,69.786827,20.95944,Sorkjosen Airport,620,ac745a47-8c8d-4acd-a6e5-51267425c399
00a8800a-b0d5-45f6-9b50-7d60540f8370,3305,IKA,OIIE,35.416111,51.152222,Tehran Imam Khomeini International Airport,24776,95425538-1663-4431-8791-febe9f82b595
00ae9406-2c16-4c1c-955d-fe0cf3a2744e,7,MJU,WAFJ,-2.586667,119.029167,Mamuju Tampa Padang Airport,440,a35a3278-7dcb-4597-a320-f5bf51cb579c
00b1d3fc-3ae9-4077-b348-6842e1fe40c2,232,LZN,RCFG,26.1597,119.958397,Matsu Nangan Airport,3103,5f91f3d6-bd71-4fd9-ba79-cb03eb83ac0a
00b25d88-c1cc-4327-9758-733f230e50b5,210,VRA,MUVR,23.034439,-81.435204,Varadero Juan Gualberto Gomez Airport,1781,297c4d5d-40a8-4852-bfd5-39bf2121a85c
00b5b6b8-a1d8-4a53-a5e9-66f640416de8,3169,DJG,DAAJ,24.292761,9.452444,Djanet Inedbirene Airport,620,8dfeb1ee-dd02-430a-98f9-499aae2d1a31
00b62587-9d8c-4014-80c8-9fb4e8f91692,2555,ADJ,OJAM,31.9727,35.991562,Amman Civil Airport,406,118e89b2-f0a3-4467-b4b2-408e822356de
00c2f461-6ee1-4c0f-bc6c-2d08fa209c02,443,TGH,NVST,-16.8911,168.5513,Tongoa Airport,0,c50c08ba-6ca8-4e4f-90ad-0304ee4f8318
00c34d60-9f4e-4321-aa36-1a6b4d9a64ef,1630,ARV,KARV,45.924168,-89.732224,Minocqua Woodruff Lakeland Airport,2021,63786400-f34c-4f74-a4e5-ae6e59131d95
00d3803c-0de7-48a3-ae06-12bf9f7d66a2,590,CZT,KCZT,28.52236,-99.823753,Carrizo Springs Dimmit County Airport,361,7e248ea6-1874-42c0-8532-c9717a13e970
00dd487b-60a1-4a36-8199-9fdc1d9c90f9,11,POA,SBPA,-29.994587,-51.171398,Porto Alegre Salgado Filho International Airport,49,8138f4c8-a2a8-4ab6-877a-4d8b566cb7c8
00f4eb1a-df3b-4249-aacb-b3f4f677722f,308,POZ,EPPO,52.421028,16.826321,Poznan Lawica Airport,19649,e4425b99-9ca1-4b56-ac91-0cde2022f27d
00fde5c0-3caa-4c95-80fe-578ff2ca4e44,3299,GBE,FBSK,-24.555201,25.9182,Gaborone Sir Seretse Khama International Airport,3824,ba0645a8-f516-4173-8cd7-7deee5d3fe8d
0102212e-7d10-46ea-860e-a9cdaa72bdac,2131,QTZ,KSZT,48.299442,-116.559998,Sandpoint Airport,1551,024c65ae-8b52-4764-9dd4-bc351bd48e19
010cdb82-1f5e-4745-8aaf-61e1eb14aa9f,55,RKD,KRKD,44.059166,-69.098053,Rockland Knox County Regional Airport,5417,13d5a968-2998-44d5-a9a1-a4945b950908
012776e4-ab88-4539-a7d5-6ccd1318ea02,25,MYR,KMYR,33.679749,-78.928299,Myrtle Beach International Airport,30836,0ac520a7-e2aa-4c68-ae27-0db15bcedfff
012fb650-03cd-44e3-abee-e9ebbe41fe77,297,BBU,LRBS,44.503189,26.10211,Bucharest Aurel Vlaicu Airport,2490,d4ede9c0-9265-4c90-8b99-9ea12656299c
01325a78-c984-418a-84ea-930f7a939ca3,119,WAT,EIWF,52.187199,-7.08696,Waterford Airport,706,4d37a433-3e95-4760-bfd6-31533a3252b8
013f1d24-97b8-4261-91d8-f2c349e05056,8360,CBB,SLCB,-17.421,-66.177101,Cochabamba Jorge Wilstermann International Airport,10957,029f2cde-e180-4e93-b01f-7cecf47a3b35
014197e9-415c-4110-950c-baa2e2d5557f,3931,AIA,KAIA,42.053219,-102.803001,Alliance Municipal Airport,1299,e0768070-fb86-494e-ac6d-f0d6696ba1a1
01442139-87f8-4c9e-9813-95dca8ab128a,1340,QCE,EDME,48.395996,12.721446,Eggenfelden Airport,559,563d6822-00c7-4ea7-ab80-30e6fef8336f
0154d1cf-8204-4534-8d35-41e054a92378,160,FMO,EDDG,52.13464,7.684831,Munster Osnabruck International Airport,8633,20bdebd6-7b62-4fa5-89c1-82b4aa1187e0
017204c8-52ee-4165-b37a-fb377e1009a6,947,AFL,SBAT,-9.86609,-56.106201,Alta Floresta Airport,256,6aa97aac-be13-44f7-8bc4-a754a8e85d5c
017308e3-b6df-4294-ab5e-07c9095d0059,142,ALC,LEAL,38.282162,-0.55815,Alicante Airport,62058,8d3cad0e-4000-4ffc-a114-79a321bd9ffc
0178b68a-e90a-409e-b80f-f3789dee28cb,805,YSF,CYSF,59.25,-105.841003,Stony Rapids Airport,1004,89e43df8-97e6-4c5d-8301-3019ac37f122
017f62ef-5a17-44c1-a743-7f5c37e4c18a,46,BIK,WABB,-1.19001,136.107895,Biak Frans Kaisiepo Airport,1740,8a517523-9ea4-401a-824f-0783503a0c8f
018c9675-1527-4e37-aba2-1b0f95f32931,69,BVC,GVBA,16.13653,-22.8888,Boa Vista Rabil Airport,2152,739bf98f-f9b7-44e7-a13c-f2b79030a1f2
019a7452-3c12-4a59-aadd-26089ba253a8,58,MLR,YMCT,-37.582989,140.366684,Millicent Airport,97,17849feb-8ea1-4fa2-a2d9-57eccba3c8f2
019c812b-3ae9-43f3-9638-338bbe62fe45,297,MEI,KMEI,32.337223,-88.749168,Meridian Regional Airport,3147,635b364b-cbb1-4ff5-81fd-c92a5b571c10
019d8caa-ce11-4382-a803-22d979abc523,30,YMO,CYMO,51.291111,-80.607697,Moosonee Airport,2520,30a1951e-85d3-4bc1-8d6e-3e4912ac0314
01a19192-1917-492a-8e44-18592e722561,372,TCW,YTOC,-35.811699,145.608002,Tocumwal Airport,406,4f8170f4-182c-4cbf-8b62-9da64f5daced
01ccbb9e-4bab-44f2-9166-33a6d77bd8c0,10682,IXL,VILH,34.135872,77.546509,Leh Kushok Bakula Rimpochee Airport,4220,7f748d86-abc5-4efd-a323-d706aedd719f
01e43b20-5e48-46a4-adb1-90eb31c6c7cd,282,TKG,WICT,-5.2425,105.178886,Bandar Lampung Radin Inten II Airport,4339,b47e21f3-31a0-4bd5-bca7-54ee89c62ba1
01fc0065-8ffb-44dd-bb9b-4d68cc0cdc17,461,WIE,ETOU,50.049801,8.3254,Wiesbaden Army Airfield,681,36248dab-d8b5-47ad-a4d5-9884d2e14f3a
02003724-fbd3-4418-aedd-6da6d4aa4bac,7261,LTI,ZMAT,46.650002,96.416664,Altai Airport,70,59906a5b-bb1e-4454-961a-5a90c280d7a1
021cc8af-c9a8-441c-bb14-26def7ffd7f9,734,PXH,YPMH,-29.716667,135.521667,Prominent Hill Airport,747,97b940f3-767b-41bc-b562-0d12879eafb8
0221a406-8d4a-412a-87ab-0d426aed6d4a,101,HAD,ESMT,56.69112,12.82021,Halmstad Airport,1188,a50f7199-7971-4a29-942c-c064a85c00ee
023099b6-972f-428d-94e1-a84f4260a736,126,LBT,KLBT,34.61404,-79.060112,Lumberton Municipal Airport,748,125cbaeb-ebbd-40ee-adbd-8ac71282ff4e
0236a981-a6f0-496e-9278-6e1d2fc31aab,22,LNU,WALM,3.576389,116.618332,Malinau Kolonel RA Bessing Airport,351,5ca34b39-5075-4068-ac81-4f195d96fff5
024a235f-ba75-41cd-b70d-bb2e12c2c202,155,ENK,EGAB,54.39888,-7.65166,Enniskillen St Angelo Airport,140,9f308d65-1c06-4442-9528-fff7286f337b
0250e357-4330-4405-b354-5092fb2ad9ba,495,BXP,EPBP,52.003056,23.143612,Biala Podlaska Airport,4,93a16657-93b2-46e2-8db6-38a4cac366d3
0266819c-df70-42fb-a876-cbc63371a375,4518,TMR,DAAT,22.81146,5.451075,Tamanrasset Aguenar Airport,1393,20595d12-62b1-4c26-abdc-6ad216940e2a
02705d79-43c4-465f-bfd5-c70997a65b0a,399,RMO,LUKK,46.927738,28.930969,Chisinau International Airport,17224,f3962b11-b2f5-4f50-b0c3-a3942a103c52
02ac7750-8a78-43fc-a846-41bf9fe2d867,15,VTZ,VOVZ,17.721161,83.22448,Visakhapatnam Airport,9989,389bea5c-37e2-430a-9e01-9a42011920d9
02c6151d-9e6e-42de-bc70-1799dff1eca3,86,GRW,LPGR,39.092159,-28.0298,Graciosa Airport,1123,ef3f89b9-b911-4b5f-841b-4508dd52abd9
02e93ac9-7676-4685-9d99-47a25c1f0922,4198,TNR,FMMI,-18.7969,47.478802,Antananarivo Ivato International Airport,7040,00fb5bfd-7fc3-4d47-b533-e9aaaed3d2b8
02e9fd5d-14ab-4c2f-bb27-5a9fc81ec966,180,TER,LPLA,38.761841,-27.0907,Terceira Lajes Airport,7947,4cee146b-12de-44d8-863c-13fae067b9fb
02f04261-3986-43a7-b715-d4b85f17768a,940,MJP,YMJM,-34.265301,116.139999,Manjimup Airport,98,98e53812-7cfa-4ad0-b0fc-b19f860c94a4
02f524d2-4dd5-46b1-931f-788807985b3b,553,WPK,YWMP,-16.659031,143.999619,Wrotham Park Airport,75,6955731b-5b5c-4899-8cd4-40723a146536
02fb130e-f0a5-4a01-b6cf-b5c95c45b33b,9,MEQ,WITC,4.040779,96.253479,Meulaboh Cut Nyak Dhien Airport,103,3ffeb1ce-9a49-4336-af53-79a22dfd2682
032063aa-0053-44f5-8726-d9ab817f6371,10761,DIG,ZPDQ,27.793333,99.67733,Shangri-La Diqing Airport,2735,d1d8a4a5-02bd-4f0f-9ddf-37f08ab52046
032906d9-0221-4488-b40e-d05bfa252853,143,KHN,ZSCN,28.865,115.900002,Nanchang Changbei International Airport,42739,93c3af85-ddb5-4d1a-85a5-ebfc6687823f
032fd035-da3b-49bf-b1b3-c371cdc66f87,1494,WRN,YWDG,-30.032337,119.38649,Windarling Airport,298,ca7427c9-c15e-4aad-8a9c-9e692d22fe8f
034a1042-8686-4d31-9fe5-72a7402f53d0,2384,MYQ,VOMY,12.229991,76.653,Mysore Airport,669,cc10f9aa-2cfc-4421-a1b1-45355e7c8e90
034fe61c-e93e-41b8-a781-7a191d4bc32c,3857,CTB,KCTB,48.608349,-112.375999,Cut Bank Municipal Airport,452,cdcbb627-663c-4f45-b90b-5b97969f1ac1
035ce33d-d341-411d-93bc-f024648bcb2e,5,ASD,MYAF,24.69828,-77.795601,Andros Town International Airport,1085,6f315c75-0545-4299-a98f-cec10aaf63a9
036ad7a1-1c2c-4648-899a-23f0cf446893,4364,ULN,ZMUB,47.843048,106.766602,Ulaanbaatar Chinggis Khaan International Airport,185,1cc92ae4-1c4d-452c-af71-a31ad0541e06
036ba217-636f-423e-ab44-6145da104dd2,272,VNS,VEBN,25.45208,82.862297,Varanasi International Airport,11913,af14af80-21af-4e5b-80c4-6c601bd5540a
03749095-5bd8-4931-92b7-4288478cdadd,2091,BYP,YBRY,-22.673889,119.166115,Barimunya Airport,1100,f1b2f030-c784-42f4-87b6-c458dfcbe431
037a72fb-fa87-4799-9457-fc9039961fc2,264,SRC,KSRC,35.25,-91.73333,Searcy Municipal Airport,1458,2aa07bd0-bd6f-4e90-b7d2-d4033d7d3fd0
03852e0e-240d-43dd-9bf3-6fc3b861ccf3,12552,JUL,SPJL,-15.4671,-70.158096,Juliaca Inca Manco Capac International Airport,2191,85a69e24-5415-4ca1-8d1a-2b0186bb556b
03987d6d-bc07-4c0d-bf29-abbb6f9541ea,113,ORL,KORL,28.54546,-81.332901,Orlando Executive Airport,19349,85a3cac4-feb1-4f69-af71-107da4ff747b
039ea27e-22bd-4904-86b0-618d7fa18311,5241,DLN,KDLN,45.255402,-112.553001,Dillon Airport,669,a48402c1-4fe6-4e8c-8a2b-94b62da957d8
03a31549-73e0-4487-83b2-e808ee1b23ea,47,MFV,KMFV,37.647095,-75.76091,Melfa Accomack County Airport,450,e55846e7-5e66-4bfd-b57a-2cc9da676bf3
03aa15f0-60eb-423d-bdcf-978348607c07,2182,VGT,KVGT,36.210171,-115.190826,North Las Vegas Airport,10432,7ad99787-c7ad-4321-b100-29526d83459d
03b1474a-2c50-4879-b002-61924ad36ed9,623,ACB,KACB,44.988602,-85.198402,Bellaire Antrim County Airport,605,96b0dfb0-3f78-401c-a7f7-1efc6784dd9a
03b8270b-b2f3-4094-af57-7a87c3910538,400,BNX,LQBK,44.941441,17.297501,Banja Luka International Airport,1784,492e03de-91ad-4976-9c73-9d1b5cc0c516
03baffd9-28be-46d6-a6a3-6d89e06f0de9,4848,TIF,OETF,21.48341,40.544331,Taif Airport,4428,404f0a1a-dc79-44a8-af94-3e19f0f0ff14
03c10dfe-db82-4fc5-affb-bd7776e2cc6a,1882,MZJ,KMZJ,32.509842,-111.325302,Marana Pinal Airport,991,1916ab21-120d-4525-a550-45557516813e
03ca2e30-91f6-4cd7-bd33-0d4a7f3efa9e,224,MUN,SVMT,9.749067,-63.1534,Maturin International Airport,1269,11168951-0385-4725-9b0a-6754963fda2a
03d75d0b-bd3d-4373-87ba-5a58ee337a21,21,BBQ,TAPH,17.636065,-61.827099,Barbuda Codrington Airport,32,a8965f8e-0b19-464b-b441-3fc3b78d73bd
03d7f905-1561-46b0-8948-f611d114abc7,2561,HCA,KBPG,32.214962,-101.521271,Big Spring Mc Mahon Wrinkle Airport,360,ef7c35df-4d33-4091-a18a-7fc87d09ecc2
03d84c72-5fe1-4d2b-bbc4-7015b3dfe2d1,4181,MBD,FAMM,-25.798401,25.548,Mahikeng Mmabatho Airport,4,bc5da071-b3a3-4a0f-9be1-6a473049b82e
03d9188b-7a76-484b-aa3b-83b92866c1a5,942,KMS,DGSI,6.714564,-1.59081,Kumasi Airport,4255,1bbf72c2-509f-4fa5-9528-bea2194f8615
03da4363-ba8f-4b04-9043-15e50423e345,986,SWO,KSWO,36.15889,-97.085556,Stillwater Regional Airport,7143,84a2e4cb-628e-434a-b447-56968425af7b
03e35937-e7f6-4de0-a4f4-c504ff110922,1478,DVT,KDVT,33.688332,-112.082497,Phoenix Deer Valley Airport,11327,bed24c44-a767-48d2-9b14-c9e209bace7f
03eccb51-4d26-4d19-8bfb-5cfbbeb3634c,4055,JMJ,ZPJM,22.415833,99.786392,Lancang Jingmai Airport,671,27a73348-7d00-4997-a7c7-b4292fbba3af
03ffed94-5860-4df8-b25c-4e6751806570,1201,SHD,KSHD,38.263889,-78.896667,Staunton Shenandoah Valley Regional Airport,2971,17cbdba7-263d-4ce3-a0bb-81b7b81a12ee
040c4f9e-8cf8-41cd-a544-a72311eef0ea,1657,AJY,DRZA,16.96599,8.000114,Agades Mano Dayak International Airport,217,18fbe6bd-996d-4176-87fc-2f90e98f0dc0
04187e03-1cca-47cd-919a-fd3fc63f407a,6609,GCN,KGCN,35.951942,-112.147499,Grand Canyon National Park Airport,4715,c895ec27-134d-454f-91b5-2b2906a07af6
043682ad-665e-4108-b2b9-6245839c2bb9,1015,GRK,KGRK,31.067249,-97.828903,Killeen Fort Hood Regional Airport,2594,88114474-e134-4619-8a86-135ab5f9b10f
04408b74-6de4-4fa6-96d0-03e98e7a198e,747,UKE,VEUK,20.097393,83.183151,Utkela Airport,660,9389c2a5-8b21-459c-8370-1ed4f22d60f5
044589ad-cb39-4a38-8ee5-15a5ac6a62b3,8,PHB,SBPB,-2.894273,-41.730507,Parnaiba International Airport,381,5eb1f40c-0303-4b9b-ac0f-8bdbad5e4b86
046212fe-8858-46bf-bcae-96378de8a3ad,15,DGT,RPVD,9.333714,123.3004,Dumaguete City Sibulan Airport,2459,778ab3f5-49f4-48a8-994e-19dee8d8249b
0462de92-893b-4d36-be86-00c8d38d2f4e,177,THS,VTPO,17.223057,99.82222,Sukhothai Airport,767,e2fbe222-42ad-4c9e-b0c3-797cb48eaad8
046c0ec7-a798-4e52-9958-020f531d1e73,184,TFF,SBTF,-3.38294,-64.723999,Tefe Airport,548,dbdd6829-8e74-4309-8cfa-ac1e9535e8aa
048416fd-a5b4-4706-8350-503baeb80cb1,74,SQW,EKSV,56.550201,9.17298,Skive Airport,136,ecbb284a-c1c9-4df4-90a4-afbeeb0b2ace
0485fe18-b340-44ae-a71c-71df8cd55231,90,VER,MMVR,19.145929,-96.187202,Veracruz International Airport,7333,e8d09964-7e8e-46c8-85cd-994639577ce0
048c3eaa-d1db-4f2d-8345-09d57ac7703a,734,YNE,CYNE,53.954166,-97.845833,Norway House Airport,128,267a5e71-d985-45c5-9cda-339c8414715e
04b26d71-af6b-4769-9266-bc5584d10466,31,KLW,PAKW,55.579048,-133.076248,Klawock Airport,5702,8b7c063b-dd9d-4306-85dc-547d7b1c7e7b
04b4b719-40b9-429d-8314-eee69bed42bc,3381,KYA,LTAN,37.979,32.561859,Konya Airport,2902,61242ebd-8a73-4181-bf96-98927ac5c131
04b74844-53e8-4e83-9019-474784feef55,929,HGN,VTCH,19.301661,97.974998,Mae Hong Son Airport,142,6779ad5c-4434-4289-ab86-8df69569f7b0
04bc77a8-a81f-4772-ad5d-f9e895081b19,1604,COR,SACO,-31.323601,-64.207901,Cordoba International Airport,10469,e1cd40c6-5c3e-432b-b2d8-b3c42a45253d
04d35384-e8c8-486b-a219-e171d0b927b6,10900,JAU,SPJJ,-11.783333,-75.47361,Jauja Francisco Carle Airport,600,cedf22cf-1222-4d7b-9e83-c19594f82ca1
04e331cf-1e10-4c6a-947d-306ebec8e670,123,YVB,CYVB,48.07111,-65.460281,Bonaventure Airport,834,88e2df7d-a8bb-4d89-b4dc-667c27652e1a
04e9d821-dcc8-4a97-92e2-92c9507a26c6,3,IFU,VREI,5.708056,73.025002,Ifuru Airport,645,f51417ed-5c7e-4b14-a35d-e59219590971
04f7a165-8777-445e-8d01-e2e4bdd5205b,73,VKV,ULAH,64.441689,40.422092,Arkhangelsk Vaskovo Airport,70,244ea740-fcaa-432c-ae29-29c5ab1bd5a5
04fa7365-d376-45ed-a792-463d0e4a0a8a,995,KTW,EPKT,50.474251,19.080009,Katowice International Airport,28744,0b9048d1-d156-4d3b-a901-740a38abd533
04fd582d-9555-48be-9e1e-88ae3463a641,4024,SHR,KSHR,44.774166,-106.977219,Sheridan County Airport,2530,ed8bd0d9-5dca-4e0c-ac0f-d2075591bdaf
04ff5dbe-d865-49b2-b6b1-5c7125406ec8,262,JMU,ZYJM,46.845394,130.455414,Jiamusi Dongjiao Airport,3521,2de6875e-d66e-4e92-8f5d-20952996fed2
050d7a65-32f9-4f8d-a4d9-f97d1d656296,1095,YHP,CYHP,52.1133,-94.2556,Poplar Hill Airport,478,930cc63d-2819-4081-a157-d656d29cbfdc
051635fc-e02b-4a74-8947-2ac30795efe9,4251,MHU,YHOT,-37.047623,147.334106,Mount Hotham Airport,13,3759a727-1597-43be-a6fe-7b65a85f9dd2
051d4e05-0ebf-4d87-85e2-2f6de131f88f,2191,MOC,SBMK,-16.7069,-43.818901,Montes Claros Airport,2453,c74c8cfd-dc7d-4a35-9f84-0138082defec
052cf2e2-5712-4b77-9b70-8fa2dc1ee864,154,LCC,LIBN,40.238712,18.133364,Lecce Galatina Airport,82,0022631e-c91d-431f-bb5e-70ebdcd4fbfc
053ee746-6909-4eeb-abb8-267cbcebdbe4,604,LCJ,EPLL,51.721882,19.39813,Lodz Wladyslaw Reymont Airport,2415,4b28200f-0d8f-4649-ae8a-2abfd0c82418
055cb27f-58e7-47db-853d-1c45e08b3dbc,659,LGG,EBLG,50.636379,5.442778,Liege Airport,20863,c9eb29dd-5ded-4749-8a7f-19230a0389fc
05621ef6-5c4a-45be-9361-88f308b99d2d,761,PLX,UASS,50.351299,80.23436,Semipalatinsk Semey Airport,791,18a0275c-bb4b-45dc-a6c9-fce014cbc542
05a071d1-624b-4894-b3f2-0b8f43c9efba,98,JGS,ZSJA,26.899721,114.737503,Ji'an Airport,5528,d89cb88c-8628-4c1f-a7d0-d419059f3a4b
05a34bfd-d4f2-4387-aadf-aaac2bdda9c2,413,PPK,UACP,54.774349,69.18399,Petropavl,570,8d83292d-195e-452c-90c0-fcf7b7fd694f
05a3fbfd-1188-46d1-b30f-f251a0acdfb6,68,QBS,YSKR,-11.866466,142.009842,Skardon River Airport,699,a673be39-205c-4f19-848e-973056de77a6
05a4eeef-f6c0-4c9d-be3e-5e645d45ae27,495,BUD,LHBP,47.436932,19.25559,Budapest Ferenc Liszt International Airport,66690,dcec47ee-18da-412a-9543-b749308219ed
05aae6de-cb66-4348-a5e7-adae48fcdfbf,-1,HDG,ZBHD,36.523888,114.43,Handan Airport,3355,7d2753a3-281b-420b-a555-64719215d785
05ab2863-bbd1-4509-84f6-7f6d8f4daebd,50,YNC,CYNC,53,-78.816666,Wemindji Airport,223,d163034e-d226-4541-927b-27cd9a782f95
05b2a7e8-b329-4837-ad84-2b76427f9a2b,2221,MJM,FZWA,-6.12123,23.569,Mbuji Mayi Airport,836,2a11ab06-cb49-4960-89ad-047505a7e450
05b94122-19bf-4539-b033-4899d0b006ed,67,UUK,PAKU,70.330803,-149.598007,Kuparuk Ugnu Airport,876,a82fef4d-cad8-4a2c-96a5-e9e474806203
05dbba45-aeee-47f9-a833-73ff2c4f3224,246,NCU,UTNN,42.488411,59.623249,Nukus Airport,1143,f8b41f65-bcce-4c54-8219-60e2362ce01c
05e07c28-3100-42b5-b1e2-09c87f27f6dc,10,PTF,NFFO,-17.777901,177.196701,Malolo Lailai Airport,65,35a68a1c-2162-4e81-920e-a6eb42ee7554
05ea6df1-fae3-4b24-a6a9-245c00c2e744,1421,YZZ,CAD4,49.055473,-117.609184,Trail Airport,724,59dd67a3-01b1-4f22-ab64-594f0f95ca68
05ec1f80-5abb-42cd-b269-8ac8a438b2b8,157,QEV,EDLS,51.995277,6.843333,Stadtlohn Vreden Airport,744,fbbf4739-bbd9-49f1-89f3-9a599d9bae89
05f9ea25-294a-4e0c-b9ec-7c3d3775244b,243,HOV,ENOV,62.182999,6.067,Orsta Volda Airport,3449,374807b1-85aa-436a-b88d-7fb048d5932b
05fe5c1d-39da-4c08-aaf8-d4783c627dce,9,NEW,KNEW,30.039444,-90.026665,New Orleans Lakefront Airport,7742,26494edc-0442-4586-b145-9e62e6d8d36e
06021a17-212c-45c7-9368-b371ac8787cc,869,CID,KCID,41.884682,-91.710701,Cedar Rapids Eastern Iowa Airport,13129,59e47f13-9d9c-4130-8422-ddad1f0dc94c
06100616-628f-4e24-a368-4eb5d609c180,59,SVA,PASA,63.68639,-170.492004,Savoonga Airport,1172,3e79ca36-28ca-4092-8ef4-57ee8a2cdbcd
0612b0b1-00e2-4060-957e-c6d86915fa09,713,YXT,CYXT,54.468498,-128.576004,Terrace Northwest Regional Airport,4164,8f731db9-4d12-42a6-a760-51b9cfa3fd75
06203649-6d1e-42a9-b0a5-75e50cfb9ea9,10,HOI,NTTO,-18.0748,-140.945007,Hao Airport,252,4c6058fb-919a-4e31-8ba4-2db45e10119c
06274619-e267-4d8c-b290-471c24f17f81,684,TKY,YTKY,-17.040615,128.206009,Turkey Creek Airport,171,6dd021f5-85b3-4ec4-9bb3-78b06db6dde9
0629ba63-33bc-4834-8714-6655551aa16d,312,NYU,VYBG,21.175343,94.928322,Nyaung U Airport,792,357f3b63-2831-491b-b7a0-39aa62d8b3dc
06377c6a-d880-4085-a8ca-90b071851cef,1390,MVR,FKKL,10.45139,14.25736,Maroua Salak Airport,275,7b1757fb-73e5-4898-920f-278f537105ff
06392d6e-583d-4ca2-8472-b4906b2cb5a5,247,RJB,VNRB,26.508841,86.737251,Rajbiraj Airport,319,7e05f9ec-1efd-4663-8d41-4a2070943702
063b003a-2d8c-4c47-aeca-e79aec11461f,60,MFA,HTMA,-7.9175,39.668331,Mafia Airport,1914,dc17226e-df6d-4dea-94dc-102408145124
0651da9d-15ec-471a-994b-eadc7262e5db,446,NOJ,USRO,63.183056,75.269165,Noyabrsk Airport,1450,47974bb2-417d-4d4d-8259-0826c4cc222d
06543469-cf79-4b0d-a338-71d9deacc1ce,29,UBU,YKAL,-14.2883,126.632004,Kalumburu Airport,642,f044ea6d-8601-48db-b1cd-95baab949319
065c0fd4-15ef-428a-81e4-70e52a804e83,138,ZUH,ZGSD,22.00666,113.376297,Zhuhai Jinwan Airport,43233,f9cb8eb1-09d1-485a-b010-719edb85c77b
06757b80-7e6d-4cc0-b8cc-78d069de92d5,5140,EKO,KEKO,40.824909,-115.791,Elko Regional Airport,2475,03d3abfb-cb64-4706-aa68-2492a02918c5
0676cbfe-5ab4-4c89-8fca-ab1d8e474501,1604,QBI,YCAI,-30.120394,120.570854,Callion Airport,191,6096405b-ad97-47cd-a46a-fe69525bc987
0676ed4b-172c-401a-b257-862f6c8f51dd,270,OXF,EGTK,51.836941,-1.32,London Oxford Airport,6526,e739cf36-9a49-4ba1-9f42-4f16984d02d7
0679a1c0-dc71-496b-886f-63622e144c27,2327,CJF,YCWA,-22.965,118.809998,Coondewanna Airport,1050,7e042b7b-0aaf-4152-996b-910ec3463bb1
067b44d3-13ce-48a9-8083-3510aaed201a,20,IBZ,LEIB,38.872849,1.373117,Ibiza Airport,56574,aac6e9ab-c785-4634-a3a2-23128686461e
067d3c53-39a9-4b67-beb5-6315c58e6053,1972,JJM,HKMK,0.165006,38.195026,Meru Mulika Lodge Airport,1711,5f272bce-d980-4e69-8001-ebcd11018135
067e4e24-e7ea-43bb-ab1c-0e72631f8004,172,LPI,ESSL,58.406151,15.6805,Linkoping City Airport,1498,577230ff-0d8e-4c7a-a635-ec566be8d2c8
067f0efc-ed5b-4701-aa3c-5b86afa563ae,3571,TWC,ZWTS,39.888268,79.234367,Tumxuk Tangwangcheng Airport,3107,c415b0d7-2144-491e-b4bc-71ccff45083e
068b382e-db4f-4123-bf40-1fd775a8a2f0,1497,PDT,KPDT,45.698334,-118.836113,Pendleton Eastern Oregon Regional Airport,2142,daf96040-3c1c-4eeb-ae33-99c353bf9827
06a320dd-a552-4317-9c82-b4a49c7e1773,305,WHO,NZFJ,-43.363503,170.134781,Franz Josef Airport,253,135bfd30-a957-4c44-8e20-97e554e6b388
06b59b43-811c-4d3e-b74f-2b5f58ffec6c,627,LRE,YLRE,-23.434099,144.280197,Longreach Airport,1230,145b5b7b-0481-47c1-bd6f-5c095697bc75
06b7e535-33c2-40c5-82ab-428455c1320b,312,QKS,EGBS,52.241524,-2.882913,Shobdon Airport,240,087f952c-9edc-4d51-ba51-813290b2beba
06b8baed-6990-4869-a0fa-dc8e5a96988c,910,QZL,LKLT,50.131863,14.525814,Prague Letnany Airport,1415,cc680794-843c-48ea-87c6-22d49ce687cf
06c96ee3-d579-4b8e-8d21-2633e3be941f,18,DSI,KDTS,30.399591,-86.470879,Destin Fort Walton Beach Airport,8803,5a459fb9-6ba8-464b-9365-8badeddff007
06cba447-d1a8-42d4-8246-3b38fd83754e,651,MTW,KMTW,44.129723,-87.68222,Manitowoc County Airport,497,ed158c73-55ee-4a93-8fd7-1af156f0808d
06e0ea2a-bc84-472e-87d6-eaf7cb733c94,2309,HDE,KHDE,40.452602,-99.337372,Holdrege Brewster Field Airport,696,b46382eb-4efd-4d41-9a5e-fb6a5ed731ad
06e2eb2f-295b-46ea-9a82-08e9cc215955,2540,JTI,SWJW,-17.829908,-51.774345,Jatai Airport,32,1b06127f-1d37-405e-8ba3-aa0f79a9ee43
06e6e2a7-20bd-47ea-ac2f-febd6b39ec49,277,FCH,KFCH,36.73214,-119.820335,Fresno Chandler Executive Airport,807,03b7cc0a-6dcc-4049-a1b9-641ea8991997
06ee36e2-543f-4cdf-81b8-c53de739fd6f,902,OMM,OOMX,18.138243,55.180038,Marmul Airport,484,aa0fdc58-ca7c-47c4-a6aa-de6298d77dde
06ee9478-c08c-4765-bcb3-b18ef6fab91f,796,KEA,UTAE,37.822311,65.135384,Kerki International Airport,331,5ff2f1a7-56fb-495a-9b57-c45fd79e6c4d
06f5015a-8b95-4816-9d3a-60ca00486e28,2293,TJU,UTDK,37.988335,69.805,Kulob Airport,444,3328e4f8-76bc-49fe-8a32-85664ee3d169
070ae3ca-a401-471e-9b01-8506502f0652,219,THE,SBTE,-5.05994,-42.823399,Teresina Airport,3588,2a555676-ff91-4f76-8fc6-67694c7f5170
070b540d-2b4d-42e5-988b-11de131f4815,889,COU,KCOU,38.818089,-92.219597,Columbia Regional Airport,6056,52307cdd-b9e1-4f63-9eea-f0f92abb83ec
0712f731-b071-46ea-aede-bd4af992a212,294,MAW,KMAW,36.600601,-89.992203,Malden Regional Airport,376,a083c35e-b1d0-4c33-830b-93b65e3a736a
0727a9a6-7e8d-4fdc-a1fc-1f544c9e00e6,2344,WJF,KWJF,34.740314,-118.218185,Lancaster General William J Fox Airport,2263,65124bf4-700b-461e-b151-017405a69cf2
073a37da-eddf-4576-a571-da79a669552c,666,ONK,UERO,68.514893,112.480019,Olenyok Airport,170,fda07c53-e307-4a03-87c1-790e69b3dcfb
074349f1-da2b-446f-a257-240bd83ac27d,1649,WUN,YWLU,-26.620001,120.220001,Wiluna Airport,810,3b90ab1a-67d2-45d9-9260-86c68f7f4579
074f1fdb-0452-4676-a607-0e01f93a7829,1887,GBD,KGBD,38.34425,-98.8591,Great Bend Airport,709,a88cf21b-8c91-4887-b42b-630f3c099f2b
075d5680-8c7c-4668-a06c-975e59925973,2126,ELQ,OEGS,26.30282,43.773911,Al-Qassim International Airport,5494,a9f922fe-545a-4c58-8c73-ce089379e7a5
0763defa-9452-4508-9519-c2f352d923c4,948,SQJ,ZSSM,26.428211,117.836914,Sanming Shaxian Airport,1380,66b16bc9-7715-4050-bc7e-dab742d841e6
0766677d-6df3-408e-90ad-9929ab45219c,359,DEB,LHDC,47.488911,21.61533,Debrecen International Airport,1984,df5021c0-d45a-4935-9639-0e9013585c9a
07707309-1960-4a51-9fce-65d46264a4af,80,MYD,HKML,-3.2293,40.101662,Malindi Airport,3330,45c90292-a01b-4a39-9343-aec3e6725506
07722eab-90a0-46de-8395-0e74cfcc4180,528,YTA,CYTA,45.863415,-77.250923,Pembroke Airport,90,96964013-7d74-4faa-bfa4-f6ee6843020c
078b5fed-869e-4812-b050-b12c3a95d987,151,QPT,EPTO,53.030125,18.540222,Torun Bielany Airport,116,d419479b-05c5-4ee4-b849-45640e8a3f10
079b23b5-5367-454d-826e-4fc504226846,32,PBL,SVPC,10.4805,-68.072998,Puerto Cabello Bartolome Salom International Airport,70,c6cc560a-000e-493c-87b3-a23a2c64ca11
07a73afa-fa2d-4853-8245-49cebf1421fb,115,TBP,SPME,-3.55252,-80.381302,Tumbes Airport,1468,6b8d33a7-fd13-45e7-b7fa-eedbf7fa073e
07b3ae85-8db8-4f49-8904-a42c6e6341d6,33,YAK,PAYA,59.5033,-139.660004,Yakutat Airport,1653,e3b0e142-3d20-44a7-8078-1fe7e6f56e8e
07b52a66-593d-46c4-b142-2c7575dda2b6,19,ZDY,OMDL,24.508333,52.335278,Delma Island Airport,81,0c8b7720-fdcf-42d6-a75d-a5caafe208aa
07bf1233-e6aa-462d-b104-ae09ae71a1ad,928,BKQ,YBCK,-24.4277,145.428604,Blackall Airport,290,0eb064b4-cf88-4cdd-ba38-abe0e4080a25
07bfcea4-5a34-4039-b830-bb02f6e24633,1515,AZN,UTFA,40.72773,72.294006,Andizhan Airport,13,dc3b8fbf-98b0-44bd-851d-61df31ce91dc
07c8b38a-c8d5-40a0-b988-d8eefefc1df6,3668,OKU,FYMO,-18.813002,17.057985,Mokuti Lodge Airport,90,cd7e6118-f994-4c84-b0e2-4e5bc952fd13
07cf2f05-ce99-430d-b263-0656dd3ba8fa,209,IUE,NIUE,-19.08,-169.925003,Niue International Airport,92,44d5d2e2-933c-466c-be08-5a17d75a5dd2
07d723dc-8464-40aa-bcae-ec61869195ac,1233,VGZ,SKVG,0.982159,-76.604057,Villa Garzon Airport,576,0b98a8c5-4c93-4781-8ec8-76a069dcabf3
07e2b902-ac02-4273-b45d-131f0870cf20,23,PBD,VAPR,21.64867,69.657211,Porbandar Airport,0,2d08cbb1-a782-4e60-896e-379804d096e6
07e53e67-0c0b-48c3-97b7-d706de525b10,928,WMH,KBPK,36.3689,-92.470497,Mountain Home Ozark Regional Airport,979,bb0bbc5b-19fa-416a-89f1-37a156524d0f
07e724fa-b7c6-4a2c-bf28-0acb61bcd418,19,SHU,YSMP,-11.133768,132.160034,Smith Point Airport,208,894e6acc-d509-400a-8d50-a7a3577b175f
080bda3b-cf13-404f-b510-63ac5e54d08f,1617,QYA,LFLI,46.19194,6.269444,Annemasse Airport,1018,0b2114f8-edbc-4108-b9dc-05029754759c
0810d1b3-8949-4296-82ee-43187f369fe7,945,CKT,OIMC,36.501202,61.064899,Sarakhs Airport,0,bb193563-7ca1-495e-9c0f-08662e916098
081f2343-54bf-4fba-a139-ab0b67919a61,6000,KHM,VYKI,25.9883,95.6744,Khamti Airport,110,56b6f35a-583a-489a-b4c3-e10206bd528e
0826fbb9-620c-4ec2-b3f4-d596c95982ee,-1,NZL,ZBZL,47.869061,122.76841,Zhalantun Chengjisihan Airport,1217,9d0cc7da-7b11-4975-a555-72f805796e29
082c8d21-02ae-4ef5-8f57-90170c09dd5c,75,EZV,USHB,63.924583,65.044853,Beryozovo Airport,350,f629be85-e58d-41ec-9979-02bf83ebaa66
083de615-b3f7-42f3-bf52-31e77f5e8de3,97,KTF,NZTK,-40.813301,172.774994,Takaka Airport,64,077cfb88-a09c-4ed9-b616-b41cd130595b
083f9d35-2c53-41b9-a6a8-d246015e2948,1510,SCF,KSDL,33.619999,-111.910004,Scottsdale Airport,25236,63688ab0-1991-45bb-a023-3fcfbd163a1c
084115a5-82d8-4072-8c49-24a7aa7c2b49,4729,PUB,KPUB,38.289131,-104.496002,Pueblo Memorial Airport,6759,6f67f0a0-6125-4fc5-960b-7dbbadc6b54e
084df0e8-ee58-4adc-9a6b-28caf9b6515f,1012,IXC,VICG,30.67346,76.788544,Chandigarh Airport,12644,8aff7009-1897-473e-808e-38455bec84eb
085fa582-7fae-487e-9dc1-83acbdf6c23d,24,LUP,PHLU,21.211111,-156.974442,Kalaupapa Airport,1601,742791d0-7358-46f9-93cd-ff1cebc53bce
08668f3a-b885-402e-8118-a487991097b4,3206,MSO,KMSO,46.916302,-114.089996,Missoula International Airport,11003,e5bb078e-24f2-4647-8507-a0180131d2a8
086da831-cb7b-43d6-9aba-10ebe1aa188b,56,GAO,MUGT,20.085409,-75.158302,Guantanamo Mariana Grajales Airport,80,929c9f11-c415-43ff-934a-ce8aaeb092b0
08a2b4f7-9e5c-44dc-9174-9699440d9699,716,YIP,KYIP,42.23772,-83.529999,Detroit Willow Run Airport,12894,4123b381-2e3c-4da1-8989-d72686829f5a
08a955c3-a14c-4ac7-9ea6-e41987393a47,11,PWE,UHMP,69.783302,170.597,Pevek Airport,160,d64f9ce6-9323-42ab-8188-75819ed551e5
08b21c0b-671a-4209-8e1b-b95c1abc0d21,60,MYE,RJTQ,34.072659,139.560043,Miyakejima Airport,31,987bad73-8f30-4139-9103-26cb84074b56
08b51d96-4da5-4603-bda2-74b98c14a5c1,48,HZK,BIHU,65.952499,-17.4258,Husavik Airport,2,6562d6bf-cfba-4a58-a1db-1c69aba3d7a7
08e86246-8330-499e-a146-50790379b20b,68,ECP,KECP,30.35,-85.790001,Panama City International Airport,19772,6c09d511-735d-49bc-bccc-3806689db748
08f36e26-902c-47ad-a13c-3c569e848d87,20,NTU,KNTU,36.824867,-76.027893,Virginia Beach Oceana Naval Air Station,896,730fcdc1-484d-4688-9f08-40418e00b496
08f97aa7-b051-4fd5-85ba-86769aec0df9,6878,SBS,KSBS,40.516666,-106.862503,Steamboat Springs Airport,1096,252ea01b-54a7-4aef-9d02-ee791bb02c32
09019b0d-f777-474d-b3cb-5d9b0911c81f,2927,EZS,LTCA,38.606918,39.291409,Elazig Airport,2522,1ffa0c60-eee8-45e5-9fea-a43caf625350
091540c1-8a17-4747-95df-b037475735f4,263,TIP,HLLT,32.66354,13.15901,Tripoli International Airport,6,fde5ac9a-0b85-4fc3-8e04-8e684be415cb
091ad4fd-480f-4c25-8994-f3fd09ec9441,259,BAF,KBAF,42.157955,-72.715622,Westfield Barnes Regional Airport,2387,6e4bbc37-92a5-4921-ba79-d6c5161cbcad
091b8516-e733-451b-827c-d3cec06a8965,495,MGH,FAMG,-30.857401,30.34301,Margate Airport,308,7fbcf7fa-9bac-4e29-8064-2f7332992c1c
092a3289-ec63-464c-a372-8d09cb198b25,927,EFK,KEFK,44.889606,-72.228043,Newport State Airport,468,a2df3dc8-182d-4d6b-a971-03db92edbd49
093672ad-b54a-4e7a-af3f-8d62895155c0,7,EKA,KEKA,40.805,-124.114998,Eureka Murray Field Airport,704,1eac2018-adb8-4612-8cf9-aa910adcbc9e
094ccaa6-6e22-4b72-ae74-5d95d529f6fe,939,UKK,UASK,50.036591,82.494179,Oskemen Airport,2174,843c8132-9050-461e-afec-bc01d8c45c5a
095b9053-4361-40a0-b0d4-c2bd57716d58,3123,GUY,KGUY,36.682777,-101.507774,Guymon Municipal Airport,928,953ad0dc-a9a4-4674-bf2c-fc6f9c788898
095ba32d-09d9-4f89-a619-cf7a3c5d8bd9,937,MIE,KMIE,40.239723,-85.394447,Muncie Delaware County Airport,1522,8be3cf5c-bb65-447d-8a0b-e2d3f2ee9956
0961812d-5749-4077-a500-4a710f893936,775,EKX,KEKX,37.688889,-85.92778,Elizabethtown Regional Airport,1143,5b2be9de-7d38-47a6-975c-a6e8c4f02212
09857bec-bc3e-483f-81a0-76bab1289cea,53,LBC,EDHL,53.805359,10.71922,Lubeck Airport,1546,b416f1dc-13a3-4d99-84a6-0a29d679d527
09a60d09-103b-4b46-9302-918db116d6de,1019,SRA,SSZR,-27.906267,-54.519985,Santa Rosa Airport,8,9515d4fd-359a-4041-8a24-ba036de1d336
09ae0a25-48e7-4e91-ac47-8637485999b6,39,SUF,LICA,38.905392,16.24226,Lamezia Terme Airport,11420,4aff7e74-49c3-4ead-84b5-f16048004cf7
09c0411f-6bef-479b-97c8-8aa59804f9cd,892,CEU,KCEU,34.671902,-82.886497,Clemson Oconee County Regional Airport,4951,9782a77b-5b76-41b7-98dc-4cfbcaf5f5a4
09c1bf84-4218-4896-9a3b-1d3b7bc79d66,1043,SLD,LZSL,48.637829,19.1341,Sliac Airport,112,f8d657c0-ad1a-43f1-8820-200b2673a12a
09d9713f-b8e3-42ee-8aa2-e0012fe2f688,12,EGM,AGGS,-8.578487,157.87587,Seghe Airport,459,5db19019-72f7-4b57-a908-948b4be9f92e
09e4f3b1-57ba-4e0d-b903-5e0dd483c2df,25,MYJ,RJOM,33.827221,132.699707,Matsuyama Airport,11777,5e663934-6345-4054-87d6-fb6e6be7f7af
09f44d5c-4441-4e04-8903-f17e5a13cd8d,2863,NAJ,UBBN,39.18861,45.458332,Nakhchivan International Airport,3821,346fccad-8850-4327-b61e-5508fa0f9c30
09fdaaf5-3979-4a0d-b01b-58336348efe3,26,GAE,DTTG,33.734165,9.921366,Gabes Matmata International Airport,10,1d900c36-346b-484c-a1f7-2f0816c25966
0a041b65-3383-4805-8841-4486fc475237,1365,CKG,ZUCK,29.71921,106.641602,Chongqing Jiangbei International Airport,158160,6d1a0b81-3b9f-44a0-ad72-ef538e89fc93
0a1f53bd-e256-488f-8919-d18d1c9dec2a,10,ARD,WATM,-8.13234,124.597,Alor Island Airport,331,8fd14934-e604-47d0-8877-9697234600ab
0a2ac416-81f6-4150-b94a-d0cf769b32bf,1380,HOE,VLHS,20.260511,100.436783,Ban Houeisay Airport,60,7f33b7d5-21db-46a9-af05-ada19c36ac0d
0a4cf941-7bd3-440b-9787-384b78ed9f17,4553,CNY,KCNY,38.759445,-109.746109,Moab Canyonlands Field,2336,7c47620a-08c6-437d-a3cd-3b624a733728
0a5d5d8f-b668-432c-983c-e818d0e5c83a,230,VAR,LBWN,43.232071,27.8251,Varna Airport,8751,70bc57b0-ebb7-4073-a691-ddedcc5a7430
0a7a5528-9260-4ce3-98c9-48c7d6337285,89,LSO,LFOO,46.475788,-1.724561,Les Sables-d'Olonne Talmont Airport,285,e9e0c57a-dcac-417c-9503-d4f611317daa
0a8eccce-6cb4-46a7-91d1-88a13ecee536,656,KLF,UUBC,54.549999,36.366669,Kaluga Grabtsevo Airport,944,8e5ac91e-c763-477b-aa3b-5584c8cbc574
0a932607-8f2e-4c16-b29c-41e85d9464ef,-24,GBT,OING,36.909401,54.401299,Gorgan Airport,979,f8d4c48d-5bf6-4754-9e95-b678eed068b0
0aa0e165-ae9a-42fb-bde6-2d7277b3e3ac,91,JSU,BGMQ,65.41246,-52.9394,Maniitsoq Airport,398,299f925d-bc33-47a9-8f32-099488a0ff51
0aa1e208-62ce-4985-9c3d-8bd2c259fcc0,308,ATH,LGAV,37.936352,23.94446,Athens Eleftherios Venizelos,150819,cd5d49d7-8f32-4dff-8ddf-f326d8fdc14d
0aab1dee-3f5a-4eb3-b491-af7012c4349e,18,OGU,LTCB,40.966667,38.066666,Ordu Giresun Airport,2050,ad7b8fb0-5f2f-47a3-8bdd-29ae363c37a3
0aae58df-6a1b-4e7f-a675-ada5c73649de,2458,SZM,FYSS,-24.512403,15.746901,Sesriem Airport,0,5ceeb438-4fef-4d00-8120-022bec119cdf
0ac46d55-8dd6-49f2-9e0a-9e6498f67bd0,2001,SXZ,LTCL,37.978901,41.840401,Siirt Airport,310,b666a6b3-b68c-4ee5-b1d3-27c49a1ee913
0ac4f9ce-a077-4ec1-85f8-836d0f58ce15,16,LPX,EVLA,56.517502,21.096939,Liepaja Airport,713,f3314388-07c8-4a98-b5e3-8f6a7f45d3d0
0ae17cb1-aec0-4dfa-9b6b-64e349ad4b69,760,CCE,HECP,30.07222,31.83333,Cairo Capital International Airport,36,788cc021-ab31-4a17-ad1f-eeeab56a72dc
0ae2ff79-06ff-4da5-b431-05f93ea100e0,1842,JAA,OAJL,34.400002,70.497223,Jalalabad Airport,42,87b89b17-3696-464c-a496-52353efec098
0aee54da-4d36-4acb-9220-1c3eda785c8d,1125,YAG,CYAG,48.650002,-93.43,Fort Frances Municipal Airport,811,5f91c2dd-7752-4c36-af8c-18bc2e4001b3
0aefab06-b477-4590-bd04-e66f97b9b3a7,33,NUM,OENN,27.917212,35.294044,Neom Bay Airport,1754,3c11edae-51a9-436f-8dac-2ee1fd2cd4ae
0af11fd9-1592-4737-b4b4-4c6d48594a7a,495,THV,KTHV,39.916943,-76.873055,York Airport,2323,c3cb6f66-5a86-47e5-9e5e-473295122db6
0afbb749-4dd7-45ec-9997-17f8e035c733,142,QQW,KAWO,48.160831,-122.15889,Arlington Municipal Airport,2827,861b4295-c26e-45b7-accf-4375fcb3d178
0b08b4e8-1966-4d7d-b770-d2f9acb228e2,3084,YXC,CYXC,49.612221,-115.780998,Cranbrook Canadian Rockies International Airport,2796,b403c91b-32f9-4895-b8f2-5dc1c435f76b
0b268c31-c3ab-4504-b121-d10d8fade005,906,OSU,KOSU,40.079723,-83.073059,Columbus Ohio State University Airport,11204,5899b022-0d1f-423d-96e4-63ef0aababef
0b2d8a32-3ebb-4b07-b930-8ec1e8e4fd1d,16,RML,VCCC,6.821994,79.8862,Colombo Ratmalana Airport,58,58f1ea26-2d96-4d8b-b228-5b45f7c68f4a
0b32e8e5-2ba8-48b6-b38e-7c1dd7508fd4,13,FXE,KFXE,26.197269,-80.1707,Fort Lauderdale Executive Airport,21609,ed6502e0-c0d5-42bf-afcd-74cc4699d4dc
0b506875-e4c0-46fe-817d-4ccf7d3bfd10,29,LGK,WMKL,6.329728,99.728661,Langkawi International Airport,8395,85a0e814-52eb-4d7a-80ae-a3671e64126f
0b607a05-f90d-42cb-8fd9-7daa7ed00cc1,104,TZX,LTCG,40.995098,39.789719,Trabzon Airport,12669,69e749d8-0309-47be-9d3d-fb1188dad871
0b80f07e-2b71-48bf-9e4e-c723ccf350ed,14,TBI,MYCB,24.315001,-75.453613,New Bight Airport,974,e2ebfd80-29f5-47e8-b29c-ae4fe7d8d2af
0b82fb67-aa00-4780-99e4-296abccd9fdc,2322,ZQZ,ZBZJ,40.739227,114.931458,Zhangjiakou Ningyuan Airport,1020,41087fb1-c785-4827-98b2-cfd97d0fff7f
0b849456-34fc-4703-94ca-775793702ada,39,CTA,LICC,37.466782,15.0664,Catania Fontanarossa Airport,47172,2d022db8-b47a-4391-88c6-897ed2a92e06
0b8896ae-d5fc-4f96-aa84-ed59e8926922,42,UTP,VTBU,12.67994,101.004997,Rayong Pattaya U-Tapao International Airport,1479,0b95f59c-fb56-46ac-903c-434551ac21ea
0b8b84b1-d680-45a5-97c3-f0f3f52feef7,44,HVG,ENHV,71.00972,25.98361,Honningsvag Valan Airport,851,b269a397-22c4-4505-9223-de4b65180d42
0b90a803-a33b-4172-9be0-4cd2f5ee0b3a,129,EUX,TNCE,17.49649,-62.979401,Saint Eustatius F.D. Roosevelt Airport,1417,02f39705-d410-4796-938e-e4b13b4a9e23
0b958e9b-c1cb-4922-ae9f-a7d9bcfa0d57,19,HNH,PAOH,58.098057,-135.403336,Hoonah Airport,2249,99613324-3389-4bac-9def-ba966a2c8701
0b993877-3958-4ecb-8868-9f36e1bd33e1,207,EUN,GMML,27.151661,-13.2191,El Aaiun Hassan Airport,1257,d843e7aa-c1f2-4c5f-8a9e-85b6984f3883
0b999816-0b61-49f8-9249-71c460a5fbc1,9,OAK,KOAK,37.721272,-122.220001,Oakland International Airport,64660,e4f412a4-cdf6-4c75-ae0b-0a54f8909bc1
0b9a3634-4dd4-418a-ae3e-80251089a320,137,MRI,PAMR,61.213539,-149.843994,Anchorage Merrill Field Airport,6682,a02a5808-b8cf-48c7-9d05-3bf35d229cfc
0bb1ecea-bc15-4124-90f9-93a52e42bd40,1046,NUE,EDDN,49.498699,11.06689,Nuremberg Airport,22235,dcde864b-7037-4d11-8362-3c77a9e55065
0bca475f-b169-462d-b1c7-d288075e3c4d,913,EAU,KEAU,44.860001,-91.480003,Eau Claire Chippewa Valley Regional Airport,3160,10bfd49c-3ff2-46a0-bbca-59a6992667f8
0bcae419-b0d6-4d5b-a8c1-3439fd3eb04d,1127,MTQ,YMIT,-26.486603,147.944641,Mitchell Airport,46,9230303a-9e19-4069-b387-5e6c2f1b7e8e
0bd5efaa-c301-4c4b-929c-f84fa92f7ac3,2096,AUR,LFLW,44.897579,2.416719,Aurillac Tronquieres Airport,715,d5764223-1aa8-4c18-b989-be7ba407c802
0bdc9d7d-42e6-431b-bbba-1b60be070fb7,1005,YAH,CYAH,53.7547,-73.675301,La Grande-4 Airport,140,982fd4cc-ee88-4623-b4db-be823aa39a90
0bddbfb2-b05c-4b79-878a-9eed8ce5cd57,798,ADG,KADG,41.86607,-84.078293,Adrian Lenawee County Airport,1382,3dd671fc-d1ea-4828-bdc5-895ed88edc12
0bf0f3f8-3b41-46dc-9a7f-aa5520a1ddef,1998,KCS,YKCS,-24.421228,131.819839,Kings Creek Airport,53,305e2123-6440-4af5-a2ab-b185c3ede493
0bf89689-35d8-4d46-9ca1-9a37eea055ec,83,BHY,ZGBH,21.53944,109.2938,Beihai Fucheng Airport,7760,a756837b-b8dd-4e0a-be54-792431586444
0bfb598f-052a-49bb-8aa7-b207588153fa,1101,RIE,KRPD,45.415775,-91.772942,Rice Lake Regional Airport,874,60c43e53-313f-4377-b6ff-f6b6aeaba5f1
0c131004-8141-49b9-aab8-bb7a6a4e9897,46,KTG,WIOK,-1.81663,109.963402,Ketapang Airport,1362,d75e1d05-8c3a-4daa-9663-497d09da5682
0c17059a-9c26-4b6e-b959-fb5af5348078,1037,JCS,SNWS,-5.211346,-40.704185,Crateus Airport,88,256f1523-bc24-456d-9c5c-3af8f028f8a1
0c1f59c8-7fbf-49cb-bc2f-cae177f4543d,3707,LNL,ZLLN,33.787998,105.796997,Longnan Cheng Xian Airport,2344,9ce375d3-2cad-4e48-91d7-320dd5b1e071
0c2a3a5a-ff61-48d7-88c4-3a58551d12a3,10,VAI,AYVN,-2.69717,141.302002,Vanimo Airport,586,ba3b8758-857b-44d6-9f99-92652a36ebb9
0c31be8a-33b7-431a-8832-d49d651c36b3,14,WYN,YWYM,-15.5114,128.153,Wyndham Airport,375,1eb08276-f221-4e3d-b05e-a06b8dfbb240
0c36a7c9-3ab1-40f8-8ec5-dcb34dfcf29a,1049,ROX,KROX,48.856598,-95.6978,Roseau Municipal Airport,275,a9aebb31-f991-482f-b2b9-ae5b108a40d4
0c4bf18e-6300-4b28-a9e5-8afb0e0969e3,157,LDC,YLIN,-20.453775,149.039337,Lindeman Island Airport,71,f7fd5c05-ae0a-46c4-92c5-425844bc58e3
0c4cbd4d-79c7-4a37-9e10-c1511a4e4639,35,DIA,OTBD,25.261059,51.565094,Doha International Airport,935,2c6c3091-0200-4d6a-859d-c82aa36eb73f
0c5048ac-90af-4e8b-a8a1-99a9bc06b97c,2350,YPZ,CYPZ,54.376427,-125.951256,Burns Lake Airport,16,819642eb-aa96-4dfa-be00-048e33c28e56
0c57352e-b0f8-41e1-99b4-311446535bd8,59,NAN,NFFN,-17.755301,177.443298,Nadi International Airport,16499,81f5a7c9-a1b5-4850-84b1-835bd364a4de
0c57eef0-b207-4986-a201-21e394bf4cc2,4728,PZH,OPZB,31.358379,69.4636,Zhob Airport,0,5fc539b2-725f-42f5-9c3c-52f928d0ef72
0c5a7b9d-a412-451d-91fa-dcfd176b666d,7,KBZ,NZKI,-42.425125,173.604248,Kaikoura Airport,360,f5337a61-4394-4cca-8826-6e3c210b1d4e
0c641fe0-760d-48d6-90de-c260c32374ff,5763,ERZ,LTCE,39.956501,41.170158,Erzurum Airport,2782,ce831331-ec14-4842-8550-295f01e017e1
0c70bd3b-727d-4db5-abbd-7cda73f4b5ca,5918,CEZ,KCEZ,37.302776,-108.62722,Cortez Municipal Airport,1997,ae36d819-80f4-4069-b54f-50032f48ffd2
0c78163c-40b6-4bae-aa08-3d0daf875cce,14,UNI,TVSU,12.6,-61.410999,Union Island Airport,14,93da4938-271b-4f16-b80c-49dccd6a128c
0c79de71-02ed-446a-a4d0-92651418a8b7,161,JIU,ZSJJ,29.469999,115.800003,Jiujiang Lushan Airport,1586,c8fd1fcc-5449-4998-a361-bffa278d0291
0c82392a-fe85-410b-a59e-0f9641aa46f5,49,CPX,TJCP,18.31328,-65.304298,Isla De Culebra Benjamin Rivera Noriega Airport,3763,750f5fa9-4aeb-4c7a-91bf-22bbb6aae929
0c86581d-9a8f-4086-aeb9-0380b1cb5db4,802,VNY,KVNY,34.209721,-118.489998,Van Nuys Airport,38261,ffa31336-c8f1-4a4e-b173-c1d48bdb741e
0c90363f-ce67-49c8-93e3-c23ac8387388,229,MQN,ENRA,66.363876,14.30138,Mo i Rana Airport,2459,3e3a9658-76af-44f1-b99e-b13aae6f8c0b
0c91f53a-550d-4d63-a2b6-9cbcadeaa5cd,126,BTH,WIDD,1.121028,104.118698,Batam Hang Nadim Airport,14389,20a7c2d7-9920-4f01-b94b-6e1b996662f7
0c9c3f1e-4972-4d39-8260-253b1882bab4,893,MWB,YMRW,-29.202637,116.022049,Morawa Airport,52,a6a61730-206f-4cf9-830f-326a6c7b47eb
0c9d4be7-4b39-4b3e-a866-5d46a627ea05,283,ACI,EGJA,49.706745,-2.214291,Alderney Airport,2380,becbc4d2-8228-40c9-814b-b8adab6072a3
0ca3e23c-ca64-48c5-83f5-45934daff06e,27,YUX,CYUX,68.776108,-81.243599,Hall Beach Airport,330,d1670b5b-65d6-465c-b807-75ceeca73f29
0cac3107-60a1-424c-84d7-3ede3fbaf0a0,9000,JMO,VNJS,28.780426,83.723,Jomsom Airport,0,84c36107-96bf-474a-959c-b29477d052b0
0cb829ab-bb81-4543-83f3-93dc33caaa9f,1533,EWK,KEWK,38.058201,-97.274498,Newton City County Airport,1005,76472226-3c13-4454-a71e-096193d9597a
0cdd8bfd-7042-4d60-ad59-bab90494b53e,102,SYS,UERS,71.928757,114.079178,Saskylakh Airport,130,b9809fd4-63ef-4cd9-8483-2377e0cceb7f
0cdfc784-ac22-45c6-ba97-1fe35456a39a,-1,XAI,ZHXY,32.541389,114.077782,Xinyang Minggang Airport,1677,74e518e0-82b5-4614-ac25-990ed789c2f5
0cea850c-296b-479c-8cdc-60387133de4c,4941,INW,KINW,35.024166,-110.724998,Winslow Airport,383,1600f144-7a35-4024-aaf6-16e658a2b206
0d1546fc-7db8-4b58-8c4e-2f9ca23e0a23,501,ESL,URWI,46.370594,44.332966,Elista Airport,233,3e88d603-e099-4c83-ae50-791fb1989b35
0d1e0f82-a857-4e0c-8583-cf5849a7f671,443,JPE,SNEB,-3.019722,-47.316387,Paragominas Airport,127,42d2bfb8-caff-449e-a932-886be9001982
0d301a6a-cd98-4aff-92a4-33c4e0b9bfc2,37,AGP,LEMG,36.679596,-4.496117,Malaga Costa Del Sol Airport,93095,43e4edba-1641-40f7-b5c0-337869fa3fa8
0d371855-f030-4a39-aef1-e73780485623,2272,HTA,UIAA,52.02631,113.305496,Chita Kadala Airport,3327,76a9783e-9281-4ec4-82ca-ece32a225578
0d49da39-d47b-40b1-bcb6-9596f20dca30,4305,WMC,KWMC,40.904331,-117.806946,Winnemucca Municipal Airport,355,af678d85-56ff-4f16-8a98-162c46cddd9c
0d4a4175-71c8-4632-80b8-2b4acf3c9b9e,94,QCQ,EDWQ,53.036091,8.505381,Ganderkesee Airport,804,4b98da7c-b2f9-484d-a560-e83902e04a95
0d55aeb4-acad-4a6e-9c13-04b44a1a64c5,1427,SEB,HLLS,26.986959,14.47252,Sabha Airport,358,d335dea7-b15f-4ada-aeeb-c79031d68704
0d5d4e40-da50-4f9e-a18f-148cf121781e,364,QHK,LHKE,46.917618,19.748909,Kecskemet Air Base,243,c129688c-8cbf-4e77-8fce-62c2f5868dd9
0d5de92d-0f56-4945-ad08-5ce6c059eb4e,2910,SHL,VEBI,25.704872,91.975983,Shillong Airport,1686,143c1915-f25a-45ba-8234-de982476e364
0d6f3b95-e08e-45c0-b04b-1ff99ba2b384,716,MTO,KMTO,39.477982,-88.279648,Mattoon/Charleston Coles County Memorial Airport,741,095efbf0-a0b9-4a9a-93aa-b01dcaed0719
0d753013-2809-42c1-ac14-92f9834312cd,4637,TXE,WITK,4.721123,96.849068,Takengon Rembele Airport,1,3094bf12-c0d1-4863-94c6-aa0dd6530b2c
0d7daa93-e884-4701-9d09-c806ed28c7a5,66,RUN,FMEE,-20.889999,55.51638,Saint-Denis Roland Garros Airport,6903,9c853462-ecb0-4a27-8402-7ca813de3197
0d82678e-7310-4574-9104-8634c12bd254,466,MVN,KMVN,38.323055,-88.858612,Mount Vernon Airport,1546,7ead5a37-4f63-499b-8ccf-2032cff956cd
0d94838d-0912-46e8-b580-24315657b0ae,5643,BKY,FZMA,-2.30897,28.8088,Kuvumu Airport,2,ddeb561e-39c1-4298-873b-70637a399561
0da40b55-c3ad-402c-9283-9a207e99e0a9,264,TVI,KTVI,30.9025,-83.880554,Thomasville Regional Airport,1751,5d963a3d-93c9-46c4-9c76-67cda90deefd
0de2cfc6-8f2e-4957-8005-a923772ccbef,2988,CWB,SBCT,-25.5284,-49.175701,Curitiba Afonso Pena International Airport,24772,e892354c-d169-470a-adbb-24b92fb00f60
0dfeac4d-20bf-4908-b9e0-d4c586c1f93e,147,FLO,KFLO,34.18536,-79.723801,Florence Regional Airport,2951,d6ec5663-914a-4bd8-82bb-51ce558bc91f
0e0374de-f32c-4662-9f93-ed73be4e83f2,1284,MZR,OAMS,36.706909,67.209671,Mazar-I-Sharif International Airport,1017,8433b452-48cd-4270-af11-0e63a2af35cb
0e0a7813-1041-4f83-9fe7-9b33c8d0c028,336,GCI,EGJB,49.434952,-2.60196,Guernsey Airport,14893,ec26fc2a-b25a-4658-a426-1aa56fa38d59
0e1a7635-acdc-4cca-8406-867b0edc5374,311,WIO,YWCA,-31.522322,143.378204,Wilcannia Airport,264,c939456a-a766-48c4-80bb-69a255b8778b
0e1ca038-cbf9-4d79-908a-38fe566ff75b,616,UKI,KUKI,39.125816,-123.202164,Ukiah Municipal Airport,1675,a6ddf3cd-1b25-44bc-b3e2-a4071ff0894c
0e331f96-7c75-4a05-839e-d79ca4ef550e,534,HOX,VYHL,24.899599,94.914001,Hommalinn Airport,301,36f84f46-6321-472b-9fe6-5262b38dd94e
0e332976-d560-4016-a227-9686292736ff,2284,JST,KJST,40.310001,-78.830002,Johnstown Cambria County Airport,2021,fc6c2554-d1e0-4f4f-8032-9e0650df3262
0e372d9f-85ba-4022-9996-f6c061160701,463,QSV,KJVY,38.366142,-85.737885,Louisville Clark Regional Airport,5824,44681033-6f13-4c6d-b732-cf832fdcf603
0e37d299-9429-42e9-a396-0d8d459b6fdd,344,HQQ,ZHQQ,35.869514,114.465767,Anyang Hongqiqu Airport,319,64461bbc-eaa0-4a33-8ada-4d00ab76b0b1
0e3d4e82-c31f-44df-ab6a-c78e6f75ca6a,25,HAQ,VRMH,6.740362,73.165199,Hanimaadhoo International Airport,998,4f5ce34a-6e92-4168-9a02-14ef26b1d40d
0e46142a-fd01-466a-9183-3fcd07cdb051,341,CGI,KCGI,37.225311,-89.570702,Cape Girardeau Regional Airport,4161,7b6dc983-82b5-4d35-9fcd-2f930890424c
0e4c8040-30b4-41f6-823b-93b91901b353,4,CTG,SKCG,10.4425,-75.512703,Cartagena Rafael Nunez International Airport,23360,2c85dab2-1599-47ac-b8b3-5b9089e437ab
0e66f047-b31e-4a32-88c6-43e0b6c75824,223,IRZ,SWTP,-0.3786,-64.992302,Santa Isabel Do Rio Negro Tapuruquara Airport,90,85473484-2518-44f4-9cc6-4060875f521b
0e6a3b19-78d6-4045-8c86-757238898850,297,GRF,KGRF,47.079426,-122.580772,Tacoma Gray Army Airfield,748,ec992780-e10a-474f-88db-4ff1fe6bb827
0e6ab37c-ce09-4eb0-ab96-9b5e300bb7bf,2999,IBE,SKIB,4.421333,-75.1325,Ibague Perales Airport,1603,2cc48a5c-72ab-4999-8cbd-f8969d25b614
0e74754f-f55a-4c71-a0e2-723f5657e399,210,YZS,CYZS,64.193329,-83.359398,Coral Harbour Airport,390,593a25fb-bc6c-4aec-a39a-757b4b5aa1d3
0e7512b3-3f3a-44c4-b472-4e3b08c44781,246,BHI,SAZB,-38.724899,-62.1693,Bahia Blanca Comandante Espora Airport,1170,8240adfb-fbbb-4222-b04d-1bd86b5eb6d6
0e84f653-cf96-457c-ae73-8df44b15923d,10,GDR,SDAG,-22.975279,-44.30722,Angra dos Reis Airport,249,196129c0-960b-499a-b27b-4f9024a8eb55
0e97f249-9cce-4400-a31a-b08c5d64c737,24,BKC,PABL,65.978889,-161.126663,Buckland Airport,851,445af4ad-3b5f-48ec-b11f-286c60f497cb
0ea01b55-7d69-412b-bb3e-44064fbd6e5f,55,BNU,SSBL,-26.830715,-49.093758,Blumenau Airport,233,32ed3e68-eecb-40d8-ad5b-3bb7525ed5e0
0ebd53c1-6487-401f-a6d6-f9d854b8a1ba,43,SXI,OIBS,25.908899,54.539398,Sirri Island Airport,19,f80a00dc-7c24-4082-9a2e-d240a3d392d0
0ec0fcd8-27d6-4205-86ce-bab9e6ab2341,32,CMB,VCBI,7.181139,79.883789,Colombo Bandaranaike International Airport,26496,58f1ea26-2d96-4d8b-b228-5b45f7c68f4a
0ee9aa15-bdba-4011-9271-55f434867ea0,84,TQO,MMTL,20.174339,-87.65873,Tulum International Airport,4571,90dfcc40-2839-4cd8-9e01-1806a30426de
0eed1bc0-acad-44f7-b48e-646e95c93214,712,RVY,SURV,-30.974501,-55.476101,Rivera International Airport,3,0807dfd3-3545-4547-af0f-c2ce562f80bf
0eeee62e-6ab7-49e7-828d-c9aa94313aa8,9186,DNH,ZLDH,40.16111,94.809158,Dunhuang Airport,6008,a670e715-a51a-42eb-82b7-e049170cf044
0ef323f5-58b8-4e5b-862c-110bded5767e,1288,XNA,KXNA,36.28186,-94.306801,Bentonville Northwest Arkansas National Airport,18320,931f5e93-49d6-4d1e-83cd-6a15f9a5ec4d
0f03fd09-ba7b-4a80-8081-8386a105c3ce,66,HAF,KHAF,37.513401,-122.500999,Half Moon Bay Airport,1161,cb5b5524-fa98-45da-a443-25648475bbbc
0f0ee6a2-8992-4aba-a7aa-85379ebaff77,10,EOI,EGED,59.191422,-2.77168,Eday Airport,12,36eb73c9-bad1-4e93-87e1-745f08f30744
0f0fec15-c341-4bda-94f0-86cd30549c2c,1289,HON,KHON,44.385189,-98.2285,Huron Regional Airport,815,5f3224b5-ceaf-4ee7-afc9-abc5778094c1
0f3f8e3a-3077-42ea-ae5e-c6eae76f3dca,439,WGE,YWLG,-30.032801,148.126007,Walgett Airport,765,7a77948b-ba01-42ca-9c56-e196cb165cfe
0f4a2b47-367e-45a1-9ed6-ebeeeadd204a,46,IXA,VEAT,23.886971,91.240448,Agartala Airport,5132,d1f9bd99-79d7-4bb4-9b74-1d8a629d5932
0f522feb-f075-4245-a75b-62540b118861,14,URE,EEKE,58.229881,22.509489,Kuressaare Airport,673,a4abea22-880f-4d9f-a104-8ac9d2801c20
0f5c3e8e-0867-4b24-913b-09e2854d0a6a,74,PMV,SVMG,10.91292,-63.967499,Porlamar International Airport,3766,362cfc09-96f3-4bf5-ba68-0869eb2be897
0f6130b4-cfc4-4267-9d35-fc708d902540,96,DVO,RPMD,7.125522,125.645699,Davao City Francisco Bangoy International Airport,13397,03fa9a41-108a-42bd-bb40-43ff00194a8d
0f6429e4-3bf2-4f69-b282-e7ad0b9528c7,15,AOR,WMKA,6.189667,100.398102,Alor Setar Sultan Abdul Halim Airport,2572,333edca0-623d-424a-8f5a-9058255dee7f
0f672b5e-40eb-4421-9575-a02df9f421c6,31,NRE,WAPG,-3.8548,126.701202,Namrole Airport,180,524d9569-a7e5-4144-a067-dc79a8aed08e
0f6a7a63-8abf-477a-ac03-a4fab74423ee,1148,TSY,WICM,-7.3466,108.246002,Tasikmalaya Cibeureum Airport,17,89997b00-593e-48bd-b424-f9fab39cfa01
0f6e711a-27f0-43de-949c-aa27406fd31a,325,EUA,NFTE,-21.378,-174.957993,Eua Kaufana Airport,500,2a69e2c3-d548-4fb5-9caf-84fbe757e8f4
0f6e808d-4259-41fd-a93a-895c5ece52f5,224,YEV,CYEV,68.304161,-133.481995,Inuvik Airport,1890,6bc2d22b-587b-45cf-b79d-c7e4cd9380d3
0f6f1cc4-3e5e-433c-aeed-dadee26f3a52,41,MEH,ENMH,71.02916,27.826111,Mehamn Airport,912,fb71ba6d-76cd-4403-a215-c8ac0f28d610
0f7bfcc7-b4ad-4b7b-a081-e1b1374a1987,130,OIM,RJTO,34.782028,139.360306,Oshima Airport,149,a15429f6-7fe3-4c70-bd5d-6946b3dc336d
0f92940a-584b-4c07-ab10-94c28f7ef485,82,ALG,DAAG,36.69101,3.215408,Algiers Houari Boumediene Airport,40700,0e249850-99f8-4dbc-bd08-fe68a79f788d
0fa73a2c-7703-467f-a0b5-c9371b27e980,2400,FAH,OAFR,32.365601,62.165138,Farah Airport,0,1dce769b-5c8f-4048-9f10-dc413cd94d09
0fab8ac8-ab17-4730-ac67-929b3d397232,61,ZHA,ZGZJ,21.484119,110.593475,Zhanjiang Wuchuan Airport,11153,9bb55dcf-0c9f-4bea-a5ee-dcd80a5d88d4
0faf1a30-3af6-49d4-b102-7b53c73af25b,46,DVR,YDMN,-13.750139,130.69426,Daly River Mission Airport,233,0286a9bb-7161-4dbc-8673-35c99f6a2fd7
0fbe8a47-043c-40a1-887b-bf125793f552,665,QET,EDRT,49.863335,6.788056,Trier Fohren Airport,303,cefc4545-64a8-4a5b-980a-0ec5b215cfe2
0fbf3b74-cda5-4941-ade0-f76974fea5e7,2472,CXJ,SBCX,-29.197001,-51.1875,Caxias do Sul Airport,2547,32b034d9-bc54-42a5-b741-b250f80ac9e4
0fbf8d67-7183-4fef-8366-7e5f85b47036,4124,BIH,KBIH,37.3731,-118.363998,Bishop Eastern Sierra Regional Airport,1893,426b7f2f-e735-48d4-a72c-c481ee181198
0ff981da-9e43-4b74-81a7-cd748dffdf77,433,BFE,EDLI,51.964722,8.544444,Bielefeld Airport,1041,4f5139e6-12a7-4ea5-ae4d-f583c0246d38
0ff98355-4dd5-4805-9d3d-c08461a9da38,9765,IPI,SKIP,0.861972,-77.6717,Ipiales San Luis Airport,878,eb11d1ec-5c6c-459c-85b8-b372f11d62fc
1002cb0b-9ecc-4c36-8bb4-77dfc464dda7,7,TLN,LFTH,43.09734,6.146031,Toulon-Hyeres Airport,5505,ef30ab2a-41e9-43f4-a4bb-170af97eaabd
1009bb03-42e9-4b68-9d10-c9e156eb1398,96,FUL,KFUL,33.872013,-117.979782,Fullerton Municipal Airport,4488,03a2f5be-3bbe-41e9-bd8a-db3fe16472ca
100a298d-df99-4b62-ae2d-29668358cea7,94,ATK,PATQ,70.467056,-157.435471,Atqasuk Airport,860,bf327aeb-3a56-4349-be48-006594e70349
1018662a-c145-4115-a01e-b52e68bfab23,1191,YNG,KYNG,41.260731,-80.679001,Youngstown Warren Regional Airport,2508,896fa31c-2d10-4365-80dd-28150a512b88
1019b808-d250-4960-9ff5-dddbcc87fe0d,1270,YMT,CYMT,49.771938,-74.528,Chibougamau Chapais Airport,1092,b75d7a48-40e4-4e74-bc6c-03dcb3ac7847
10202fe6-41b0-4618-a390-3b5ffe9381d7,18,ATC,MYCA,24.628611,-75.671387,Arthur's Town Airport,4,01c1d8a1-204a-4fe2-95bc-76e95df83380
102f3898-f40d-4418-84f5-e52fe87ef121,33,YNP,CNH2,55.913891,-61.184444,Natuashish Airport,750,4f43bf0a-f417-4031-bfda-437b162e1a77
10410786-c224-4ed8-bb04-887fa20737fe,321,QTS,KSBO,32.609016,-82.369804,Swainsboro East Georgia Regional Airport,244,f20ec709-8272-45be-8a5f-352da7f9dd86
1044de37-3a95-4ceb-b053-03448bcfc3dc,33,ADX,EGQL,56.37447,-2.864106,RAF Leuchars,241,e965102f-0a09-4edf-8f83-c3f0aea10fa5
1053d1b7-7797-4d40-9d20-77e9a31ed045,414,DNL,KDNL,33.468098,-82.0392,Augusta Daniel Field Airport,2348,0017b6ed-0f14-4031-8c3c-3073854a5592
106420a4-2cd2-4701-a850-5058fc016b70,217,PDL,LPPD,37.741928,-25.697542,Ponta Delgada Joao Paulo II Airport,17873,1cf34941-7b96-4493-9dc1-4ada7a052e75
106670ba-5237-486d-9831-87ec222b1622,89,OPP,SNSM,-0.696944,-47.337776,Salinopolis Airport,90,4eb8cd2e-72b8-464e-93b8-313a9903e39e
10695397-0884-4924-b8f4-be0c328d0261,59,PBM,SMJP,5.452831,-55.187698,Paramaribo Zanderij International Airport,1933,50314fbd-5ae8-4ecc-b0e8-5114c4abe174
106b2359-9adf-4778-9e65-4404d96561c7,1136,BJJ,KBJJ,40.874802,-81.888298,Wooster Wayne County Airport,1674,1c899028-36d1-4b2e-af70-06898cdc7be6
1074a957-a6ee-4c38-b922-7b4ee8f09aec,3660,HOB,KHOB,32.687519,-103.217003,Hobbs Lea County Regional Airport,1668,2e90ddbe-8b98-442c-9f13-6ce85b9497ce
1085e2c0-0eae-40f3-b421-48504b4ce5d7,2368,RTE,SBMT,-23.509495,-46.634411,Sao Paulo Campo de Marte Airport,1732,ce88d9f3-0f6f-44c5-85bb-577f70662fc6
108a5322-8adc-43f0-89f4-250e4b5a35b0,20,LSI,EGPB,59.87888,-1.29555,Sumburgh Airport,6162,ec62f843-4df2-402e-906f-98a9efe31050
1090b43d-b188-48b2-8e4d-461c94c3fd3b,329,MDI,DNMK,7.703883,8.613832,Makurdi Airport,30,39adbbac-ccb2-4cd8-87e1-8c9cf8f03d08
10985686-e7f1-4995-b13c-8b7d7d5599e3,272,HEZ,KHEZ,31.614721,-91.296387,Natchez Adams County Airport,733,cf0ed469-4c50-4470-9da3-ef71d6517968
109c8665-4709-438c-86f3-c84c9bed7f73,566,PHT,KPHT,36.336384,-88.38427,Paris Henry County Airport,342,7dbbfa68-c959-4a34-9196-db8e9c6ee149
10c042fd-0124-4d28-8b18-a4cf62166ace,251,RMF,HEMA,25.55711,34.58371,Marsa Alam International Airport,7425,de4e632a-1ac4-4af0-9f21-bb8dea425377
10c5604e-2782-4c3e-af04-3344abbcd40a,37,BOM,VABB,19.08868,72.867912,Mumbai Chhatrapati Shivaji International Airport,153691,73f6be5c-d02d-4df3-8022-ddde14f85de3
10d6e623-6aed-441b-8838-d801439f3f1c,831,ABA,UNAA,53.740002,91.385002,Abakan International Airport,1869,098498dd-13f1-4d06-861b-7b103928032a
10dfcd30-b750-40d3-a848-2bc79d217466,796,CCA,SLCH,-16.98975,-65.141502,Chimore Airport,0,705a52df-835a-4ece-a4ce-6c591824713c
10eeceb8-85f8-4dd0-9467-0336f8d01fcc,1500,JMS,KJMS,46.919998,-98.669998,Jamestown Regional Airport,1355,1764b25d-26f7-4577-8a2a-e3b64c416c1f
110950ab-eca9-4d4d-9234-5042f808b0c5,531,HAY,SKAG,8.246203,-73.579628,Aguachica Hacaritama Airport,212,138c7e1a-c4b5-472e-a0dc-efc991820c80
110c08f3-b04a-4625-bf8b-e817172b1073,23,CKZ,LTBH,40.137718,26.426769,Canakkale Airport,802,59514f94-5411-4992-bac8-e8ccdbea7a7e
1112944a-ed61-43db-b8ac-e39285265f78,175,SMO,KSMO,34.017735,-118.449646,Santa Monica Airport,5659,7360a38e-02af-492f-8d61-e8bbd19dcd13
1117dfba-7de4-489a-9c1e-f6a9ebdbf9d0,908,KSF,EDVK,51.420834,9.392222,Kassel Calden Airport,1946,4604582a-524b-440d-a5b1-1285c59edd05
111af137-ca2c-4819-9d38-81a07fd3ba0e,55,KLG,PALG,61.536301,-160.341003,Kalskag Airport,1485,937800c9-fa8b-4a24-9b05-6292e06ace8e
111d8219-519d-4a53-aa6f-097ee819a786,16,UAP,NTMP,-9.35166,-140.076996,Ua Pou Airport,149,0c3cc90e-8a13-49f3-9d60-6acbafc371e2
111df428-9547-4768-a5c7-da10b745b8f1,1551,QBU,YBLU,-27.612551,120.594467,Bellevue Airport,262,7d609dff-1768-4bf5-8f8a-d3c002cf5be5
112d3ee0-fad7-4eb1-9e0c-a394ce39f2c9,44,QBP,YPPF,-34.793682,138.635376,Adelaide Parafield Airport,14230,fc55ad01-c568-43bb-82bd-2437110d73bc
1135f6b6-e9c6-4598-bf6f-bf2f8c00efc1,427,YRI,CYRI,47.764439,-69.584702,Riviere du Loup Airport,182,26360f8d-43ff-47ac-b848-f98c4bedd940
113828f4-65c1-4503-ab01-4046223e58da,89,KKQ,USDP,65.718483,82.455429,Krasnoselkup Airport,120,5dae5649-a8fa-42f7-b4e8-5ca32f64d482
113d5be1-48b3-4946-935b-c0155747c041,5112,JGN,ZLJQ,39.830002,98.410004,Jiayuguan Airport,4610,e78baed1-8481-49c3-96dd-dac8c5aa288b
1147e4ec-4824-442b-a9d3-9f7f55c191ba,607,ODN,WBGI,3.976111,115.063301,Long Seridan Airport,220,b2777910-164a-4c38-9bca-01e01d0de29e
114ed674-251f-448c-a327-a3ea8b7c93d2,7,HUH,NTTH,-16.688,-151.026001,Huahine Fare Airport,1676,f912ba9a-1c3a-4d2a-ae24-e1d318b3c183
1166310e-8356-4c14-9751-c2e9533bec08,66,NDY,EGES,59.250278,-2.576667,Sanday Airport,35,2065cdd0-7572-4f6c-aefd-b9b01f93639a
116e6e31-4032-4fac-a97c-bef062d3835f,13,QIQ,LILQ,43.986,10.1428,Massa Cinquale Airport,128,4a7dbd38-97b8-4533-b561-d90e5f236902
116f64a8-2c5b-4565-94e0-250bc4ac31c9,551,MNI,TRPG,16.791109,-62.193001,Montserrat John A. Osborne Airport,749,4517568c-c627-4c16-a952-0d36f40d58c8
1179efb4-32b1-4384-bce0-56fcbc0989d7,100,PSM,KPSM,43.078056,-70.823334,Portsmouth International Airport,8650,8e0429ab-1fc7-401e-a605-529c39aabe8d
118a17b1-2f21-4d34-8d88-479e81810246,482,UCT,UUYH,63.56694,53.804722,Ukhta Airport,951,1e15fddf-b2fd-4562-99fc-e607e6925e71
11905c51-d8a0-41f8-beba-f4153ec7b911,19,ESD,KORS,48.70816,-122.910591,Eastsound Orcas Island Airport,6025,d883486f-8002-4f0a-a085-0be98cd2d09b
1190cc8a-8542-4916-b988-d3b0ddaed88d,1509,RIV,KRIV,33.881283,-117.259819,Riverside March Air Reserve Base,3089,4a505abd-8cde-4b16-93bd-25cd72f85229
1192b54b-d2ab-4df3-92b1-a256b8bece66,55,HYA,KHYA,41.665833,-70.280556,Hyannis Barnstable Municipal Airport,14813,f37ddcdf-ebd0-4ee1-9bf0-8ac66613dd97
11b0eb20-7136-487b-8fdf-e3419888810d,32,BMT,KBMT,30.0707,-94.215797,Beaumont Municipal Airport,645,b80a75fa-e160-40f3-a6c5-ca811f465efc
11c1d3d1-4e36-4849-ab98-ada0d7e92e07,5039,SEU,HTSN,-2.4567,34.821545,Seronera Airport,10708,734e3769-1264-4847-a9cf-96d0b5e0a9d2
11db5235-e0a6-49e6-937c-3a2e5d246aab,28,MAZ,TJMZ,18.25569,-67.148399,Mayaguez Eugenio Mara de Hostos,1539,d5834821-9407-48f1-a7b5-953bfff18544
11df34de-776b-4c55-86fd-2448b6604c96,666,BNS,SVBI,8.619575,-70.220802,Barinas Airport,165,3424ec4f-4498-4c09-9576-2f50b02e84b6
11e04ea6-6700-4540-8977-332a2b97e3de,1534,WGN,ZGSY,26.805294,110.640793,Shaoyang Wugang Airport,916,57a37650-31f9-4623-bebc-f3d24ee671b6
11e0aa0e-b126-4130-bba3-214780ab1882,1332,YQK,CYQK,49.78833,-94.362999,Kenora Airport,951,c99eeb71-43f3-454c-bc82-7ae006b28572
11e4a9f8-00f4-485c-ba75-52fea547e71d,87,LBY,LFRE,47.288422,-2.347248,La Baule-Escoublac Airport,242,3a635cd8-1a30-42a2-9b1a-f61319c50d27
11f1af21-1634-4ab2-9d39-48b251ca7772,2079,RQY,VOSH,13.857514,75.616867,Shivamogga Airport,903,e3c3440f-d2cb-4f1c-bb05-e232d940ea22
11f923c4-9196-419c-97eb-2e6d5ca5c016,794,GOU,FKKR,9.335892,13.3701,Garoua International Airport,221,70209453-88d1-4624-9b7e-1d8cddb09da0
12316ead-61e4-4357-9cfa-abee39770634,352,ARW,LRAR,46.176552,21.26202,Arad International Airport,146,9a8d64ef-9c00-4917-8737-ab80632cfb96
12378423-dd2a-45fe-af8c-92c2d8a3ffb8,34,KRF,ESNK,63.048592,17.76885,Kramfors Hoga Kusten Airport,931,e74ee74d-0d53-4159-b2a1-41a22e7f572f
123e1ba1-2e4f-4173-b4a2-c2fc153a0fbc,2902,BJP,SBBP,-22.978951,-46.536983,Braganca Paulista Arthur Siqueira Airport,209,f11cfc44-79a9-4a89-b1f3-c1318bdf60be
123f6560-efd2-4c8b-9a09-9de6b1f4b8e4,457,HRB,ZYHB,45.623402,126.250298,Harbin Taiping International Airport,74085,f817384a-6020-4160-a6c0-991257ab9c3a
123f9456-e205-4d80-8447-352b0a35ae0f,124,BEE,YBGB,-17.0165,122.6464,Beagle Bay Airport,131,b40dffd1-6778-4c0e-bc1a-1b0ee30742b6
12501c3b-a6c4-43e8-b9af-b52c4a662877,96,CII,LTBD,37.815407,27.887142,Aydin Cildir Airport,2172,386fdb58-c155-483d-a36f-104ec2d64185
127639dd-d8c6-4f12-9eb9-def75f91acc2,882,XTL,CYBQ,58.707954,-98.513443,Tadoule Lake Airport,30,309633d6-e64c-4f38-87ea-4ed100186c10
12874cf5-f177-4878-afad-be0efc1f47bc,867,MBY,KMBY,39.46389,-92.426666,Moberly Airport,288,39d496eb-587c-410d-8bba-f124d7090cc1
12adc009-4be3-4982-9747-d0bd42b37035,822,YLH,CYLH,52.183334,-87.93,Lansdowne House Airport,240,d77045da-0f08-4129-a765-fc47a32cf498
12b00235-0c5e-4a03-87be-4c8069e1bc01,46,CHS,KCHS,32.898628,-80.040497,Charleston International Airport,44185,b64d1fd8-ad4c-4676-91ee-d5e3da16b664
12d28009-2610-4e39-a9bd-4bdb98898716,64,RJH,VGRJ,24.43721,88.616508,Rajshahi Shah Makhdum Airport,1456,7b58bb84-8e55-4214-9569-237e91059fa0
12d4ef50-4e7f-4c61-a136-325e8fcc76aa,1661,RKW,KRKW,35.922363,-84.689812,Rockwood Municipal Airport,338,ab95584e-9fb9-415f-9bf7-2ad2a97478e4
12e2d687-b3e2-49c3-ae86-a9e8cf4365ba,1014,GKT,KGKT,35.8578,-83.528702,Sevierville Gatlinburg Airport,2940,311d6fce-b64b-4d99-bc32-c7a4bf93fcff
12f31462-98e7-4f1c-ac0f-eca8c1c87279,774,CMF,LFLB,45.639069,5.880086,Chambery Airport,2051,ccf90a75-ae56-4fe0-a2d2-55ac9064f368
131eecc6-d7ad-4a54-96d6-06a0d7684947,35,PTP,TFFR,16.26416,-61.525799,Pointe-a-Pitre International Airport,9746,4789a6a7-1849-4a0b-a3e3-ac0e409fb312
1336afdb-65c2-4bb3-a487-9c6103f50901,19,WVN,EDWI,53.504829,8.053333,Wilhelmshaven JadeWeser Airport,1227,d22ab9b5-5ab3-4ed0-a025-e7e7931f2f4c
1336f4d1-7837-4513-8865-f5e58a0365b3,23,KNQ,NWWD,-21.053301,164.837708,Kone Airport,133,24e32499-a1a6-4e6a-9226-d04995862f65
13416100-2967-44e1-a5d6-1bf1e7ff6ed1,1716,MOT,KMOT,48.257629,-101.278,Minot International Airport,5451,0a4cccb4-26b9-42c4-b444-a760a7e882c4
13496449-5bba-4e6a-8d8e-ff9ca1718eeb,89,KCH,WBGG,1.484697,110.346901,Kuching International Airport,19180,61124e18-dda2-443f-9c00-7b82cc8a37e8
134c8071-9f2a-416a-8a39-628ad167b0db,151,HKD,RJCH,41.77,140.821899,Hakodate Airport,7166,fc678941-28a8-48b3-befc-5253d502cc50
1350279b-5376-4268-9b38-9f53fe265a16,27,HPY,KHPY,29.785995,-94.952606,Baytown Airport,614,818ba1c0-29a5-4699-a89f-705d95d95a48
135519e3-95b3-4cf2-9db8-fe0124061fe9,634,SAY,LIQS,43.256279,11.25503,Siena Ampugnano Airport,220,49460059-a490-4601-93c1-bf8fa2e622d5
1365292a-1ac4-4f0a-bd71-d8677358ff65,1071,LWO,UKLL,49.8125,23.95611,Lviv Danylo Halytskyi International Airport,1,66364b4f-2243-4df6-abda-b7b099d60281
13759323-2c3d-4d54-af68-87fe83456389,469,ZZO,UHSO,50.669827,142.760223,Tymovskoye Zonalnoye Airport,180,a84bd0ac-c671-4907-a1d6-d74eec578897
13765fe7-f5c4-438e-b0a3-5076cef58f63,3991,DHT,KDHT,36.022579,-102.546997,Dalhart Municipal Airport,760,af4dc7c0-e5c3-4801-b0ff-de04acfa5c6f
1381aa85-3f0b-4c68-89f9-7fcaf7c95695,6,WKR,MYAW,27.259695,-78.400375,Walkers Cay Airport,65,98147852-0bd4-417d-90c6-9c8b5810a3d4
13a35ffa-7808-4cb6-85b8-09c71c3f34b8,1837,GGH,SSCT,-23.691668,-52.642223,Cianorte Airport,18,2eef20a9-2127-44f5-bd93-6cc9cfe70f3b
13a60105-0345-4284-862e-82de26300c91,440,XTG,YTGM,-27.987225,143.812897,Thargomindah Airport,340,d5ba29db-cf17-4329-89f9-07455462720c
13d1c9b0-e71a-4fb6-a318-0bc738656171,2393,ELF,HSFS,13.61489,25.32465,El Fasher Airport,90,f4f0b631-152d-4608-99da-d40d2f06947a
13d3d5ac-5597-4e9b-89ad-fd98e3e8f1fb,305,IAR,UUDL,57.560001,40.150002,Yaroslavl Tunoshna Airport,722,c3071d23-9686-41bc-9dc1-e12b09e06599
13d5bacd-f2d3-4942-82a9-7d6e1ef6091d,483,KAJ,EFKI,64.285469,27.69241,Kajaani Airport,510,f03a4990-d852-41e5-889b-a75bbfff35fc
13d60908-ba48-4dce-ba1f-0121c605e911,-75,RZR,OINR,36.907806,50.685677,Ramsar International Airport,282,b152ab35-009b-4135-a266-6a4b9854aee2
13dd7aa9-7b6f-41b3-a2c5-a0c3978bacf7,3127,JAL,MMJA,19.472221,-96.781944,El Lencero Jalapa Airport,70,34ddb840-eb57-4c24-a3ea-a5a820a6100d
13e7f471-ba25-4b5d-b9a3-2c2a5f60ff83,6472,GUP,KGUP,35.511112,-108.786667,Gallup Municipal Airport,3546,b489af8d-6290-4602-acdc-175e1d8e284b
13f25b2b-c85e-4b9b-a42e-2749932a3dfe,112,BAZ,SWBC,-0.98,-62.91,Barcelos Airport,0,a497d7a6-739f-4200-aec8-6493c230cb61
13f93fba-983f-40ae-970e-7cc6988aa03d,38,MZT,MMMZ,23.16135,-106.265999,Mazatlan International Airport,6467,d509851f-1eb3-40aa-a7b4-75ccfff181c7
13ffea35-aa61-4e0d-931e-a562b93334f3,356,VBS,LIPO,45.428879,10.33055,Brescia Montichiari Airport,2945,ecac1f97-2c90-49c1-85a5-c8a85fbaec60
1404d7d0-511b-4a0e-b214-399c2ec26dc3,7993,AZP,MMJC,19.574911,-99.288811,Mexico City Atizapan Jimenez Cantu Airport,299,4f324c17-402c-45be-8c6f-dca775865dd9
1413d98f-4567-4f63-a215-6e3fbfd7b7a8,387,REN,UWOO,51.79578,55.456741,Orenburg Tsentralny Airport,3963,59165602-8d56-426b-a28d-032feed4cbc3
141ff901-5f37-44a7-9f6c-f4460d2372ef,413,TBW,UUOT,52.806099,41.4828,Tambov Donskoye Airport,488,846e2e62-cb42-4226-a68f-db407084f74e
1433831a-b237-4f6c-92f2-fad388ca5ecd,2295,COE,KCOE,47.773605,-116.824165,Coeur d'Alene Airport,6166,616d2d91-8dcc-4705-ad9c-7e18bd4d9cd8
143af68d-ccbe-40fb-ba0d-4cfe03b8465a,6070,HUU,SPNC,-9.866667,-76.216667,Huanuco Airport,1373,60f6b166-4727-4892-8452-6982f97c3312
14412486-8fa9-4f2b-bbf6-9474927468b7,15,JKH,LGHI,38.34317,26.14057,Chios Island National Airport,2953,0ece9cf3-69e6-4418-8758-a92b7eed398a
145ef75b-e679-484d-8ebd-dbf927ff81ce,162,YPO,CYPO,54.987904,-85.443001,Peawanuck Airport,220,b20ae9c1-8993-464e-b010-c5e5dca4cc4d
1484ce94-155b-4e1f-a678-afff6c88633a,1019,SPS,KSPS,33.988789,-98.491798,Wichita Falls Municipal Airport,5170,34251ca9-b1aa-4ec8-aa9c-41b0c160a80c
14885c3d-8842-4a8c-af59-2f38b9fc7dc4,21,WWD,KWWD,39.008499,-74.908203,Cape May County,2972,44f73eae-220d-4fc1-884b-565e42133f88
14963f94-be22-43e8-bb31-42706352efb9,82,CTS,RJCC,42.7752,141.6922,Sapporo New Chitose Airport,68956,2906bc9f-c96e-4d6a-9b88-a767334be3e5
14acb88a-d3b8-4ee0-8151-0a726b637243,565,TDR,YTDR,-24.986122,150.093063,Theodore Airport,274,4569b3e8-6eeb-4ef7-bfdc-e287de1d8380
14b0a569-cf36-4c2c-af06-1ecdad8be2d6,200,CYZ,RPUY,16.93,121.753059,Cauayan Airport,469,e1a25088-c6e7-46e1-88fe-0c1eff7897b1
14b8ff0d-3db1-4b79-af30-28921cf33d71,118,HOR,LPHR,38.51989,-28.715799,Horta Airport,3614,dbbc4b8f-78e9-4d02-a1f3-1b19c319e909
14b91ed6-5eb3-4ae2-900d-dc12e990c61f,1114,CMD,YCTM,-34.624413,148.036713,Cootamundra Airport,897,83b468fc-5d8b-4e4d-b9f4-d26b8d39c48a
14bc6d41-ee1c-496b-a765-85fc6589c440,560,CSY,UWKS,56.09,47.34,Cheboksary Airport,2046,497ec751-e9f8-4201-843e-7ad1cf91a2dc
14be6033-836a-4df8-a29a-f9b945daa740,1446,BXH,UAAH,46.893299,75.004997,Balkhash Airport,0,32aca4bf-6e40-48f7-a4e2-ec0d7d4d2cbe
14bfe142-e59e-4824-bfe0-eb9491c54fa6,33,KOS,VDSV,10.57968,103.636803,Sihanoukville International Airport,999,d8d8e81b-2410-4825-bf6a-f2869da85c22
14cea067-618e-415a-aa4e-8c0fac9e471e,2918,YIE,ZBES,47.310555,119.911942,Arxan Yiershi Airport,450,6f351e74-9c5e-472d-8b2b-c7c1e729d8b2
14d5c84d-abf9-4d01-b347-e27a70a161d9,1513,JUB,HJJJ,4.872006,31.60111,Juba International Airport,3465,87591748-11d0-49a0-91c4-8f52210bd13c
14decd37-f58e-4cbe-be9c-a6e77bc08c3c,5,TYM,MYES,24.1691,-76.439102,Staniel Cay Airport,1278,afb6beb5-fd94-4767-a79e-0f4883249dc5
14e78ab5-935e-4f58-9806-73919ed9ffd6,138,BIO,LEBB,43.30109,-2.9106,Bilbao Airport,26073,3245cf39-54c6-4b54-8aec-af65fa80ca18
15008588-20a3-44d4-b689-81201e0ef35e,170,SKB,TKPK,17.31119,-62.718601,Basseterre Robert L. Bradshaw International Airport,4010,524bf712-842e-4477-a5e9-4db3433206c2
150241eb-d15b-48c3-b0fd-12122b303227,31,TNO,MRTM,10.314661,-85.815399,Tamarindo Airport,1353,4b575326-4ad3-4a0a-a6bf-6329b0145b15
150f9182-4097-42c3-b0c5-ecc7c83c6ed9,148,KBI,FKKB,2.873889,9.977778,Kribi Airport,0,0e56ee26-fefd-462c-94d9-7025f985036b
15165f9b-5e07-42f8-87a0-98a738fd60bd,325,LUU,YLRA,-15.559922,144.451111,Laura Airport,72,0e9ff7e6-2de0-42fb-9337-a730bfcf3cf1
15222430-6e3a-4771-9ef2-27576ca25f53,18,YVM,CYVM,67.54583,-64.031303,Qikiqtarjuaq Airport,350,c00a8e99-fb44-4624-9f3c-806a21740fe9
1524c55b-89da-42fa-bae8-33e6690f822f,10759,NLH,ZPNL,27.542559,100.759323,Ninglang Luguhu Airport,178,f11d50cc-f6f3-44cf-a499-849dfe719ffb
154abf46-9730-4989-bdc2-5dd7a8b1f0b1,20,TBB,VVTH,13.04955,109.333702,Tuy Hoa Dong Tac Airport,1012,90ba3e56-5ebd-43cb-b8c4-98abc1595ad9
156b4290-4d48-4193-8810-96e0b307cb33,59,YNT,ZSYT,37.657223,120.987221,Yantai Penglai International Airport,37800,9b937b2e-61c4-4399-a96d-d355a19b2bc3
156e4935-7e12-4d7e-9200-88ce71cfbf76,27,AKY,VYSW,20.1327,92.87262,Sittwe Airport,782,a95f10ea-865d-4add-b576-f300e07fb261
156e91e3-0432-4972-951f-8280bae19e00,229,SSC,KSSC,33.97324,-80.471924,Sumter Shaw Air Force Base,23,bba30ca2-2e47-4213-acdb-b6ea7627cce6
15851281-c346-4f81-a333-62bb70ee92dd,189,TTN,KTTN,40.276821,-74.811852,Philadelphia Trenton Mercer Airport,14266,bfae5b32-5939-4546-ad4e-f4757cccdc36
15888e91-2d70-440a-a766-8d81a956b864,19,YHR,CYHR,50.468933,-59.636696,Chevery Airport,2234,9b268e45-268f-489a-a100-f8e3a73dfc0b
15ab6e00-894d-466b-abcd-ad03095ddfef,378,TJM,USTR,57.18956,65.324287,Tyumen Roschino International Airport,11978,9bc9009c-e63c-4cea-9065-a846a1017dd4
15b0e514-4317-4f9d-a90f-95a29689b6a4,514,VOZ,UUOO,51.814209,39.22958,Voronezh International Airport,370,096ea7c6-bc30-47a8-8a93-fc49c7e03acf
15c721f4-1979-4f86-bf99-7a1d15b7360d,2582,BJM,HBBA,-3.32401,29.31851,Bujumbura International Airport,1789,183a1bd7-d7fa-461a-98a9-88dee867d760
15c9882d-56f1-4b14-9354-ee4b891cd070,1140,VHM,ESNV,64.579079,16.83357,Vilhelmina Airport,742,cf24702f-83e7-49d9-b56a-49366cc72a52
15d22cb3-b9ae-42c8-8bfd-474c76e00fc8,505,GES,RPMR,6.058056,125.096107,General Santos International Airport,2861,64551f1e-6553-4b1d-9aa6-abd414036eb8
15d64367-897e-4063-bf1e-f5409db8ce71,18,HFD,KHFD,41.736721,-72.649399,Hartford Brainard Airport,4302,3e9786a0-a37b-44dc-901f-d947a23ba538
15ea004a-2c79-4d0a-98e2-8fe38eb0d6db,782,AND,KAND,34.494579,-82.709297,Anderson Regional Airport,1754,623a9d09-1509-47dc-8a16-1cc050deaff6
15f26339-ccbf-42b4-b5b0-682864ce0ee4,12,WNZ,ZSWZ,27.909035,120.852585,Wenzhou Longwan International Airport,44805,916c6019-39ec-4cbf-814f-ab27c44d951d
15f9f81e-a052-4865-91ba-cb0967779dba,-1,WLG,NZWN,-41.326832,174.806915,Wellington International Airport,33362,8a519a7c-372c-4df2-9ce1-74437b450ccd
15fe68a8-1d53-44c8-b3bf-6574486eac02,48,MCT,OOMS,23.593269,58.284439,Muscat International Airport,42100,7a29e66f-b85c-4e87-b9b0-9ce646ca2a4e
1615c2a6-05f5-4589-9198-072011098d88,5192,KME,HRZA,-2.46224,28.907949,Kamembe Airport,245,30cb5387-ed32-4a5b-9b89-562af9c541e3
16209aa7-a745-4d37-bdcf-a11dfe031b5a,16,AAE,DABB,36.82222,7.809167,Annaba Rabah Bitat Airport,2645,585b33d0-08b7-49a7-a59e-2a97dcd7ae16
1620e5ec-34eb-4fc0-9d42-0bacb370de14,529,SNO,VTUI,17.195141,104.118599,Sakon Nakhon Airport,959,062b6a6a-dd86-4d77-9a53-d45fd2d068df
1620f720-ba7e-41fe-b619-b6e33d500836,29,FOC,ZSFZ,25.934599,119.663368,Fuzhou Changle International Airport,53395,e4e00d6e-cec7-4fce-9cee-d748aa16fbcc
163daa96-c533-47da-ae8b-e894a44d3e0a,81,WST,KWST,41.350193,-71.8069,Westerly State Airport,3634,a2160b07-6410-411b-a75d-a1fb5c8bbcb6
1686ff2b-b344-4894-a390-c5a30596b836,3524,KCA,ZWKC,41.718056,82.986946,Kuqa Qiuci Airport,7136,236dd961-6a81-44a4-ab14-4d02dc5a5af8
168e5bd4-8f57-4940-a746-b87ad9c0313d,2356,TAT,LZTT,49.073589,20.24114,Poprad Tatry Airport,973,45b2eae3-8dff-4d7e-924d-7db8252835b9
16938843-ec8d-43dc-ac8e-6d0f90b8e4c1,677,JKV,KJSO,31.869329,-95.217407,Jacksonville Cherokee County Airport,780,bd04c92f-0f14-440b-bc50-ebdd4526c454
16976caa-d0e6-422f-a6b9-7e82fbe34b42,335,BTV,KBTV,44.471859,-73.153198,Burlington International Airport,18675,237b506f-6783-49a8-a78b-c8a0c8636195
169b1ffa-0ff3-4a7f-9e0f-7c42e5407041,26,SPY,DISP,4.746717,-6.66081,San Pedro Airport,192,9616cce3-6414-4698-9498-2a706fb59db3
16a6196d-80cc-4d02-a46d-7880502b84a4,663,KPW,UHMK,67.846947,166.138885,Keperveyem Airport,370,4a9f83af-e920-40f1-b7ee-229186d7fa32
16b7d7ba-d8bd-4ca6-8944-cb4461be8e32,5167,HNY,ZGHY,26.721945,112.618057,Hengyang Nanyue Airport,4590,db60a960-3138-4408-a279-f40c41e3eccd
16c76812-2748-48d4-9022-6568fb84e10b,544,TYR,KTYR,32.35413,-95.402298,Tyler Pounds Regional Airport,7074,940cfd8f-aa68-4ea3-b146-c614b28042df
16cb4614-045f-4ce2-8c53-29d72a766898,650,PHN,KPHN,42.910969,-82.528801,Port Huron St. Clair County International Airport,956,7a2dbe7d-98e6-4a8e-b12b-4e29f0b87aa5
16cc3ee0-5d5f-41e6-a706-d2d7896e8948,626,CRA,LRCV,44.31813,23.888611,Craiova International Airport,1382,9dfe55d7-a61b-4d3f-ba3a-1fa51a3227b8
16d1e599-01fb-413b-94e6-d5805cf170db,126,TBU,NFTF,-21.238001,-175.136993,Tongatapu Fuaamotu International Airport,3673,bd2a6013-29fd-4bab-945b-ae019da32cfc
16d4b6c2-2516-4339-a503-1e5944c351c7,417,QGY,LHPR,47.627132,17.808203,Gyor Per Airport,1564,833cf20a-3e61-49f9-8d54-e3a4b092ed09
16e6d45d-7fca-4fff-82e7-dab2dc5a5da5,430,PSS,SARP,-27.385799,-55.970699,Posadas Airport,1585,520ef77f-3520-4f7c-b10a-033ea5f178cc
16f81152-41ed-44da-b927-334cea7cbcfe,282,QEO,EDBO,51.899746,13.052654,Zellendorf Oehna Airport,367,6aded0ea-8377-4500-a40f-af050810a569
1714e805-bcc8-4527-914f-a3b0543be0b5,23,ICN,RKSI,37.46907,126.4505,Seoul Incheon International Airport,199473,7593eb36-10a7-498c-b2e3-7b6c068f7fbc
1724e697-f584-4b1b-969f-d678f3552729,450,SUY,UENS,62.184723,117.636108,Suntar Airport,80,537e4d28-6084-4d9a-ae9d-0475d7cdbde1
17274ba7-ac40-4e4c-bc76-dc4d591aeca5,5871,KBL,OAKB,34.565842,69.21241,Kabul International Airport,6391,572212f9-5ae5-4cc7-a196-78d629d34caa
1773675e-ec36-470e-a600-e043e5105b45,84,EVE,ENEV,68.491302,16.678101,Evenes Harstad Narvik Airport,4865,deb4e74f-79e7-49aa-ace8-26737d080c3a
17751499-1868-46b3-bca2-e814387d02e8,742,RFD,KRFD,42.195278,-89.097221,Chicago Rockford International Airport,14316,b12a2d8f-fa84-46d9-972f-9a2729fd5c54
17c3949e-7ff4-4fe5-8bf4-0f484e58c0f4,1047,RBM,EDMS,48.900833,12.516667,Straubing Wallmuehle Airport,1007,f3de15ab-f18d-42ba-98c7-3ad48f26ece3
17c75d7a-7534-4af0-bea1-467c92e34ca1,635,PNL,LICG,36.816509,11.96886,Pantelleria Airport,2300,92cef8ea-5bce-4704-9cbb-4409914cf2a0
17cb876d-3fc7-44ba-99ac-4f30d3e214f9,2,AGN,PAGN,57.497993,-134.572617,Angoon Seaplane Base,1095,da502a0b-d940-408c-ab71-77c0a38088e4
17d01915-e7dd-4864-b060-c6d3c7edaced,11,SXL,EISG,54.280209,-8.5992,Sligo Airport,140,b7bec116-326d-40e8-9347-e66581ed9fd0
17d1247f-5b3c-4d92-b88c-96960fa965f6,142,QTR,KRIU,38.486874,-121.102745,Rancho Murieta Airport,224,9974b221-27d0-4623-9dc0-80da6c35cc6e
17e1b6d6-ecbc-4634-9f81-47e4ffb1f540,347,YHA,CCP4,52.528099,-56.286098,Port Hope Simpson Airport,180,2347805d-3242-4a28-a213-4b591d3db2eb
17e7ab7f-57fc-4a8c-bbe4-f0043a0555c6,11,CIW,TVSC,12.69904,-61.3424,Canouan Airport,47,249dde18-d1b5-4bf3-86e2-48bd5e965d81
17ea0986-6014-4851-b71e-d61283b66d84,1469,QYW,LSZM,47.078255,9.064686,Mollis Airport,852,cda58f82-7023-47fb-988d-2654c38428d1
17fb15c3-0df8-4436-b9c3-f820b959e5a6,24,QNS,SBCO,-29.945986,-51.144341,Canoas Campo Nossa Senhora de Fatima Airport,4057,6dcef482-a274-4ec2-b9b3-42ecaaf9d82b
1801fa80-06c8-41d7-ad83-753fe3dcad6a,3,NSN,NZNS,-41.297062,173.223969,Nelson Airport,9278,6bda4fc9-8507-43ed-956b-b9ca4be2180a
18055182-2f6a-4d35-9ac2-3c9b34005e49,800,LDS,ZYLD,47.751827,129.01799,Yichun Lindu Airport,750,9a2a770e-161a-402c-93ca-e79ec388da4c
1806cb9b-cc08-433d-9e4c-70ecca89ef23,48,PSR,LIBP,42.431648,14.18106,Pescara Abruzzo International Airport,3843,aea674c2-e0ed-41e1-9d23-0b4376a893c7
1809986f-86cf-44a1-b21b-59bb3a448486,11,SKN,ENSK,68.580833,15.02611,Stokmarknes Skagen Airport,2706,b814dde1-c6cf-4344-b84b-13009645365d
180a939b-669f-4b80-8d82-8ac8f3f100c4,1986,GAT,LFNA,44.455002,6.03778,Gap Tallard Airport,505,5eabd9c2-f3d5-494c-9401-d1e1a1f5957d
18120de5-f49d-4136-8b8b-dad45ea8dc48,80,EWB,KEWB,41.676945,-70.959167,New Bedford Regional Airport,4072,d45282d9-4dba-477a-a518-bf6bf72ddab4
18170c6f-5071-48d8-8347-f62b0dadbbe0,354,OER,ESNO,63.408329,18.99003,Ornskoldsvik Airport,788,4cc22cc8-8b32-4abd-aff8-3b15fcc342dc
18179b5f-1964-4af8-a743-e7719d2693fb,3292,FRC,SIMK,-20.592199,-47.3829,Franca Airport,48,86196516-0b14-42b2-863d-378c06817398
181c7ffe-4e78-433d-a25e-6e5b4910110b,13,BCT,KBCT,26.3785,-80.107597,Boca Raton Airport,11216,809cafda-d988-41f7-a875-c2e5f4ff535a
181cbd06-d978-4a94-b63e-d9255ba8135b,2660,CBH,DAOR,31.645412,-2.279816,Bechar Boudghene Ben Ali Lotfi Airport,740,7c882200-8350-4623-87e9-bc25f0320754
18230769-8b38-4123-ac56-87d18196edb4,3688,TRC,MMTC,25.56827,-103.410004,Torreon Francisco Sarabia International Airport,4093,3a99eead-14fc-45c4-a3b0-85efa3824e40
1829ae81-5666-430b-8f5b-c6c623c318a5,92,CNL,EKSN,57.503502,10.2294,Sindal Airport,94,f1032b95-4b09-4dfb-b85c-883d6a845061
182f2c38-5b77-49a9-b41b-6a5c3817660c,1230,IWD,KIWD,46.525555,-90.131668,Ironwood Gogebic Iron County Airport,1135,312bc573-4120-4e95-a3e7-af2b2d790908
185c6148-3c37-4a91-979b-e599f156c66e,82,DLG,PADL,59.044659,-158.505005,Dillingham Airport,5090,69d18880-e62a-4778-b134-4155d7ab64b5
185cf7c4-5e5c-4690-a61c-d0d0444f7ea5,203,VLD,KVLD,30.780001,-83.269997,Valdosta Regional Airport,2771,8ad71ff6-1fd5-4a8d-9808-a19bfe1af09c
1862cf5d-fe7f-41c3-84e2-64c19037e0c4,33,JAF,VCCJ,9.792331,80.070084,Jaffna International Airport,560,5d13ed8a-082f-42c2-ab8c-f48577c785b6
186c90ca-8f84-4dc1-a442-b100068cc2c9,3369,PVW,KPVW,34.169098,-101.716148,Plainview Hale County Airport,626,3359fc27-2af2-4dc2-a872-2056e89be197
186f1c98-bd31-4fd4-958b-18665485591a,48,HUI,VVPB,16.401489,107.702599,Hue Phu Bai International Airport,4798,6f03c793-4ba1-4090-8495-eb6b5588ee08
1876090b-8516-455e-abad-13a2bdc7744a,2198,MTK,NGMN,3.374444,172.992203,Makin Airport,72,154379fa-352a-4124-a01b-94d1310817ff
1886f8bc-3277-4723-9c4c-786623e5cb42,5446,SVC,KSVC,32.631943,-108.153893,Silver City Grant County Airport,2274,2a05dfbb-0c8d-47cb-a2da-510c34083743
188b63d6-68f1-4b83-b7df-4b1212876d20,69,VLI,NVVV,-17.699301,168.319702,Port Vila Bauerfield International Airport,1867,e4423e1a-7cc8-4f9f-a529-75984c43d551
1896f056-21bd-47cf-b078-49f2b806a995,39,YNA,CYNA,50.189999,-61.789101,Natashquan Airport,815,89bcccc3-5a87-43cb-af6e-cc87a13832ce
18986471-3af8-49ce-b7d9-8cf9056c6ea0,35,ZKE,CZKE,52.279999,-81.669998,Kashechewan Airport,1190,69c6b77f-8399-438b-8194-8c38ba1459af
1899d801-af68-4543-8bda-f3aa292ad7ca,12,MAS,AYMO,-2.06189,147.423996,Lorengau Momote Airport,308,49659f99-ef37-44ee-956c-e9ad1cccc9dd
18bd9551-8481-4dca-a79d-1c92c3da85e9,981,GHF,EDQG,49.648056,9.966389,Giebelstadt Airport,875,5f392a78-9df5-4dc0-b941-06a483424930
18cd97b6-a9a6-4bf0-bd43-cddd6c9abb68,387,VGD,ULWW,59.282501,39.944401,Vologda Airport,365,f51be786-a01d-41a4-9b99-92dce8dd9f84
18ea3c22-aa02-4bca-b4ce-50637c2e250c,1218,YFJ,CYWE,64.190689,-114.07663,Wekweeti Airport,482,c635504a-3fec-4ebd-9265-a6b4e1534ba0
18f441d5-2b20-49a0-8589-6689c2366982,1269,NLL,YNUL,-21.910473,120.197571,Nullagine Airport,76,03721926-65a9-4f8d-ae3e-28b425ac9063
18f581e5-b396-4b2c-a643-6c9405391479,649,TUL,KTUL,36.195507,-95.886124,Tulsa International Airport,28196,c1966f6a-5113-4c5a-9ebf-76635b23c07b
18f6c84d-638a-481f-9e19-e2c28f89cf9a,1203,JGD,ZYJD,50.371086,124.11763,Jiagedaqi Airport,1281,c0111653-968e-412f-ba5f-2484e424768d
190c695a-af26-4db1-bf42-042c9137449d,312,IAD,KIAD,38.947441,-77.4599,Washington Dulles International Airport,150580,ca87a993-43fb-4bec-9408-5e9deab21f65
190c7711-0964-4008-87ab-b8053ae4ec49,136,YIO,CYIO,72.689995,-77.968529,Pond Inlet Airport,670,1ac82f8b-3a61-420e-a816-0201be2277d0
19153850-4a18-4421-8a31-85800368663b,1037,OUA,DFFD,12.35319,-1.51241,Ouagadougou Airport,4614,91601154-638c-48d7-a8b8-6b51afdbdd64
19268732-ae19-485d-879b-d419003bf9bb,31,TOS,ENTC,69.683327,18.918909,Tromso Airport,19209,798af819-3fa8-4be6-96f7-efb997b84137
192985c9-3673-4a97-aff2-a9c3f092b521,147,TNM,SCRM,-62.1908,-58.986698,King George Island Teniente R. Marsh Airport,1,b2c9396a-4041-4a17-9859-8f03dff000d9
1936bc35-8161-44bc-895f-728242d7c30f,1071,TJL,SBTG,-20.753641,-51.681252,Tres Lagoas Airport,322,871ba5e1-166b-4736-8c0c-4f886d047db1
193cdd3a-a7cb-4eb2-82c0-5e3aa112ba1c,863,ZAZ,LEZG,41.666241,-1.04155,Zaragoza Airport,5119,43336ee0-ff23-42f1-a1f7-0e3195a6d01c
19428375-02e7-424b-b42b-2973298b93d0,18,SNC,SESA,-2.20499,-80.9888,Salinas General Ulpiano Paez Airport,101,7c2c3ab0-3e48-4740-8fd0-c39c6bfd3ed6
194f9c8f-3cda-466c-b8ab-acdabb3cf453,334,HGI,VEHO,26.968227,93.643433,Itanagar Donyi Polo Airport,1196,ce23300b-7e57-46fc-bdb0-4670c0861d69
195219b4-84c1-4f26-8629-fab57bc7bb24,1789,ASP,YBAS,-23.806601,133.902206,Alice Springs Airport,5753,0480a6b9-d43d-4891-adc2-4c0716aee10b
195b0c18-dd60-414f-8bed-ab6b1695d45b,59,EFL,LGKF,38.12006,20.500481,Kefalonia Cephalonia International Airport,7499,2fa04e8f-34c9-44f5-ad8f-ee93733b9833
195c482b-7cd0-4dc9-b3b4-bff0fe921acd,80,BSC,SKBS,6.202936,-77.394798,Bahia Solano Jose Celestino Mutis Airport,1854,eb6097ff-3e69-439b-8f26-746fa90c6056
195e51d1-da2a-48e2-afc1-f7192fd06553,1362,QBF,YFTA,-32.582005,119.707741,Forrestania Airport,317,137536cd-5eaa-4849-8c6d-fdf4132a84dc
19916c06-3076-4446-bd9c-701566645fa8,92,YCD,CYCD,49.054443,-123.870003,Nanaimo Airport,4745,1087efd8-5ec4-4e50-85e2-e3cf3b934ca7
199933e8-8db3-4096-a35f-58a6bdf10bdf,297,ODB,LEBA,37.841999,-4.84887,Cordoba Airport,355,e1cd40c6-5c3e-432b-b2d8-b3c42a45253d
199d5861-43b4-42b4-95da-c245e80582dd,2315,GZT,LTAJ,36.947182,37.47868,Gaziantep Oguzeli Airport,9040,a9734789-b79f-4493-a797-e87bed1d93b5
19aebdb3-6dde-4a9d-bdad-204c03f53787,80,PMA,HTPE,-5.25726,39.811409,Pemba Airport,2742,bdc325e9-0357-400b-9804-7f8bce89c3ff
19af7228-9351-44b1-8227-27fb3f175d8b,121,VDZ,PAVD,61.133949,-146.248001,Valdez Airport,432,6e23f36b-3021-4015-aeaf-b5d12517e236
19b5e69f-a905-4eb2-96fa-9ce88722397b,35,OCW,KOCW,35.572655,-77.048737,Washington Warren Field Airport,512,ca87a993-43fb-4bec-9408-5e9deab21f65
19b8f428-08ba-476d-8d8c-7aba3e57730e,1989,OLF,KOLF,48.09,-105.57,Wolf Point L. M. Clayton Airport,1613,eca4af02-3d47-4df5-af48-0e38b714231d
19c6c7f6-39bf-4e88-8bfb-cff32857f091,682,TPL,KTPL,31.150278,-97.409164,Temple Draughon-Miller Airport,3290,d8a693be-b672-453b-8709-be9dcb251880
19c82fff-fb3e-4693-9768-75b362f9862f,676,RRK,VERK,22.256552,84.814903,Rourkela Airport,443,c798009a-82bb-49da-bb1e-406b7770a2fc
19d73732-3df5-4b9c-b6aa-0f8728380488,1371,SRZ,SLET,-17.811501,-63.171398,Santa Cruz El Trompillo Airport,100,8609919a-ad9a-4a25-a7c7-2c0b5762a82b
19e51b2c-1ba8-4b4d-9db6-e303b7deba50,53,PTQ,SNMZ,-1.74145,-52.236099,Porto de Moz Airport,80,e55eaf31-fd0d-4817-b0bd-f2554321cf1e
19ef20db-7988-4b96-aaab-7e7eabe2e0b7,606,CRL,EBCI,50.459972,4.453121,Brussels South Charleroi Airport,34564,01526c33-d631-47bd-a26b-de9208e4f625
19f29e56-d705-4af2-ae45-98b329c9617f,87,SVQ,LEZL,37.41795,-5.892757,Seville San Pablo Airport,29863,ff02e02c-9702-4c7d-9e5c-9d2c15385103
19f417ea-5edb-4b71-bcc1-4f51929b4719,88,WTK,PAWN,67.563057,-162.984161,Noatak Airport,893,9771f2e4-6aed-4cd0-8d7a-f9598ddb7ad9
19fa6982-aae8-4ad4-8bae-956c5834a4fb,52,ORV,PFNO,66.817375,-161.023102,Noorvik Robert Curtis Memorial Airport,930,13458bbc-cbb7-4aae-881f-c48aa8c9a878
1a0127e6-4e45-4ddd-aafd-4b1bdc3817bb,6445,KEY,HKKR,-0.389594,35.242355,Kericho Airport,19,80f5c3a4-6d60-47d8-b701-8334850c15c6
1a0775f6-a90d-461f-942f-2c1f8dc05bf4,22,SQN,WAPN,-2.099466,125.965897,Sanana Emalamo Airport,140,143e1a28-ae40-4ef9-8e34-1e6f60f44777
1a0d5ca6-b47b-4031-95a8-f91dcd51b0b2,4459,TBZ,OITT,38.133881,46.235001,Tabriz International Airport,6417,c83781ac-2859-413f-aac5-3a75f532e15d
1a25a3f2-e64f-46a7-ad44-f4ed8aab3763,7074,DLU,ZPDL,25.649401,100.319,Dali Airport,13817,c378dc6c-0c6a-4d13-a6ab-36bb7a3bc592
1a364717-a5df-43a4-9dcc-f1ae8fd6c451,4088,SLA,SASA,-24.8559,-65.486099,Salta Martin Miguel de Guemes International Airport,4957,d0b8161b-07b7-47a8-87ec-aed49233a776
1a38c106-afcb-47dc-af5f-3da634c855f4,78,QKF,EGTF,51.348045,-0.558713,Woking Fairoaks Airport,1047,0f3696dd-32ab-4e85-9f1c-02cca1351d59
1a403603-0506-4673-a70e-680314f2df02,466,RTI,WATR,-10.767597,123.073303,Roti David C. Saudale Airport,110,827aacdd-e999-4f28-ac15-bb76beb81a2a
1a572670-2fe2-431c-b307-72f290025e0e,24,SGD,EKSB,54.964359,9.791731,Sonderborg Airport,1838,6a35aada-e724-42e8-9a6f-602670d3010c
1a5bb7d1-34b8-448d-a208-383596951f15,976,TOC,KTOC,34.590805,-83.298256,Toccoa Airport,1300,55e09660-8cbc-4db1-b140-ce64881841e0
1a5fd513-8c01-46e1-b761-163d30ea6e75,285,ALB,KALB,42.749111,-73.801903,Albany International Airport,21214,e5a19695-9e60-47f7-a2fc-eae9942eeca1
1a7555d3-f5cd-40c2-9805-e5cb5a4719f9,14,AIT,NCAI,-18.8309,-159.764008,Aitutaki Airport,1642,b9cff1dc-202d-4e14-ba99-2cdf24a28131
1a75882c-394c-4868-ab47-2f9160fd8a60,1708,SJJ,LQSA,43.824581,18.331461,Sarajevo International Airport,9062,c17b9102-1b7b-4cdd-9d81-4182f358de2a
1a88508f-d206-47a9-9ea9-fca70a5f4e05,98,SMK,PAMK,63.490002,-162.110275,St. Michael Airport,1393,2eaf856f-a5b3-4e39-bd85-309fb829ffb7
1a89a5b4-2b4b-4647-9f94-2fa5c2804f4f,38,PIK,EGPK,55.507862,-4.590222,Glasgow Prestwick Airport,5208,605f8bc6-5a91-400c-ab75-413be516ff89
1a9051e2-a7fe-4065-8e73-87d1b364045f,153,GAL,PAGA,64.73616,-156.936996,Galena Airport,2853,6cee3eca-cfc7-4c19-afe7-142f97098110
1a90c5b6-652c-43e0-81ea-aea327c68ebb,62,SCY,SEST,-0.910278,-89.6175,San Cristobal Airport,1166,2c577f88-b808-4b56-886c-abe8bff07256
1a972de0-3bd6-4588-8feb-563e15fabacb,14,NUK,NTGW,-19.284657,-138.768295,Nukutavake Airport,10,d17020f1-e57f-4c54-9dd0-4a2c8a97f781
1aa3549b-cd6b-4db3-a530-bd7b75853d42,263,NYW,VYMY,22.22151,95.093979,Monywa Airport,228,fcb83447-b361-47ef-8130-280ebd4b7850
1abff925-4391-47dc-a4b0-ce65a6e23f76,433,KZO,UAOO,44.70694,65.592499,Kyzylorda Airport,1161,e7b0cf5f-fa12-4753-a8f7-487613a3b07f
1acc9be5-5d52-4fa5-9747-3656f65f2838,890,TQP,YTEE,-21.839603,140.893768,Trepell Airport,361,af771d1b-0eb9-4bf3-bb34-9bf6b8cf7bd2
1ace1a9c-5dd5-44df-b98a-b2b8533b0675,136,CBI,YCBN,-40.390083,148.016464,Cape Barren Island Airport,177,e07144e1-28c9-4879-94cf-441771a07154
1ae3abb0-e12f-47cb-b4dc-4434d7a72d49,130,XJD,OTBH,25.114941,51.316105,Al Udeid Air Base,1728,1f9f08df-9905-4b3f-afc1-9b39fbedd4db
1afac451-ba02-4999-8c5d-65c307e3a2e7,230,YGH,CYGH,66.240555,-128.645752,Fort Good Hope Airport,660,e25fdfe3-c863-470a-87ba-24310125915a
1afe7583-6c85-441d-bf90-833073a5cb07,626,LNN,KLNN,41.683998,-81.389702,Willoughby Lost Nation Municipal Airport,1186,2eb10bb7-8922-4564-8146-ab6a3516fd12
1b089f0f-4b92-439c-982d-ee1e80a30011,829,QQX,KDKX,35.963863,-83.873535,Knoxville Downtown Island Airport,3450,5fbc7551-8f2a-4e67-854f-058bd4273c82
1b2342f3-493e-4d2a-9705-346717dcb0d5,2241,BGC,LPBG,41.8578,-6.70712,Braganca Airport,373,113dccb8-c1cc-4c31-a014-481e06dcc448
1b2caadc-cbde-4811-a257-acf03b73e84d,1791,AOT,LIMW,45.738499,7.36872,Aosta Airport,263,487edd45-975a-4b98-96cb-0cdef33caf40
1b3367d7-6233-4f99-a989-5adc1d6109af,125,BOW,KBOW,27.943333,-81.783333,Bartow Municipal Airport,2294,604af10e-18fa-4362-88a7-c60b11023618
1b486cfc-deca-496d-9c17-c725bc13ba4d,2887,EEA,SNCP,-27.634167,-50.358334,Correia Pinto Planalto Serrano Regional Airport,191,fdba2c8d-709e-4368-912b-4b35b932bac4
1b489cf5-dd29-401b-8782-eeff107121d9,2671,MUE,PHMU,20.00132,-155.667999,Waimea Kohala Airport,1454,f293376f-3e68-4395-8b88-6f7048ef57c3
1b48ab2d-27d9-4981-92de-7f9be450cb74,3400,RLK,ZBYZ,40.926388,107.738892,Bayannur Tianjitai Airport,3013,4c8bbe15-fe90-4d89-b823-428d93b3376d
1b64d8fb-6bab-48aa-a240-408d936285c3,2182,MMJ,RJAF,36.166752,137.922607,Matsumoto Airport,2018,ec19ac63-2452-41b1-a687-d69cc19163ba
1b8ef2d6-b14e-455f-bcf9-b9c69dd2fc69,5906,XIL,ZBXH,43.91555,115.963799,Xilinhot Airport,6771,e1f69728-f613-43ed-9f5e-e8f0ba054826
1b93ba1f-6f20-4516-9ae4-3e36390e1006,901,FAR,KFAR,46.92065,-96.815697,Fargo Hector International Airport,21730,ad2992e9-532f-467d-b938-3f7bcdc0341c
1b962b72-d368-4cf5-9b35-520548e7b415,210,KYI,YYTA,-31.4706,131.824768,Yalata Mission Airport,120,956cabb9-1e63-441a-ad7a-f2c387974bb7
1b9cadf9-af32-4b14-871b-4616ecf3b4c9,1043,MIQ,KMLE,41.195122,-96.112099,Omaha Millard Airport,2518,532fff0c-9b02-4782-a2d1-cd20abb0175d
1baac762-b8f6-464f-b88b-789f1dce0497,366,HLF,ESSF,57.525799,15.8233,Hultsfred Airport,0,f2cb4e54-3249-4c70-9774-deb1732c4774
1bb3bcf9-15f3-4e40-bdc9-307bc6503704,1245,AJR,ESNX,65.590271,19.28194,Arvidsjaur Airport,744,08e23786-4978-41af-be56-a1222f56efae
1bb900e8-6c64-4711-a31a-b44f9ceb2a66,16,LMM,MMLM,25.68519,-109.080002,Los Mochis International Airport,2890,197030e9-6852-42ac-b844-4bff20e363ed
1bbaecec-d650-4d59-88dc-36d00c4f07cb,146,YGZ,CYGZ,76.426109,-82.909103,Grise Fiord Airport,140,3305c782-dc62-4197-aaf9-523b182489f3
1bd511a3-b782-44c3-a2f8-dfc7644cc062,2567,YZU,CYZU,54.14389,-115.786003,Whitecourt Airport,201,726b93df-f00e-4e1a-a515-6c42b60e8447
1be6b622-c48f-4228-b367-df1ea48c2de3,1520,SBZ,LRSB,45.785789,24.091181,Sibiu International Airport,2791,53b79d8f-d6af-4c2c-94a0-30e8f88b85ea
1bebf5df-c660-47c4-8319-8667778ca524,838,BAX,UNBB,53.36377,83.538528,Barnaul Airport,2793,0c4bc3c9-cdbd-43f0-a13f-cf94b9bbee36
1bf6bebb-571a-4977-924e-e27aa12c0518,41,BEF,MNBL,11.99096,-83.774002,Bluefields Airport,648,097c5937-c2c4-4692-b879-4fc7c280125d
1bf9ef92-002d-484e-947c-ceed3661e663,25,TKP,NTGT,-14.709647,-145.246506,Takapoto Airport,51,a2e96e4f-b122-4be8-a6aa-a1f889be0b5b
1c035963-1f03-4d23-9677-b0c2c1579da0,14,BRE,EDDW,53.047501,8.786667,Bremen Airport,10517,689fbf5f-0e25-4e11-bbaa-b6cc3b3b7562
1c1356af-72f7-49a2-8fee-00d5855d7418,680,MVP,SKMU,1.253531,-70.234001,Mitu Fabio Alberto Leon Bentley Airport,768,87d2f662-72ed-49fa-9073-e8b0696abb6e
1c4157f9-fe2f-47ea-8c0c-68ca12b617e2,1644,TKJ,PATJ,63.329506,-142.953568,Tok Junction Airport,363,687f86cc-b2ac-4124-b996-0ad395139ada
1c4d9560-2b1b-49a9-ab58-ddb60cde54d4,200,PCB,WIIP,-6.33696,106.764503,Pondok Cabe Airport,179,e4608c58-b3c7-4ca7-8e85-1d8b40d2b11f
1c5025e4-914b-4e62-b18a-a6dae855bb24,2777,LBF,KLBF,41.126202,-100.683601,North Platte Regional Airport,3734,74f87b24-8c1b-49d4-840e-fefe3536d61d
1c52be11-6446-4ca0-884f-7af6d826b099,13,MKM,WBGK,2.906944,112.074997,Mukah Airport,1516,5457023f-343a-45ec-8b21-4110d9075ea5
1c68d487-eb2f-4bcb-a84d-316bf2d8fd98,317,BXY,UAOL,45.621822,63.210751,Baykonur Krayniy Airport,10,df25b27f-cb4c-44be-97b1-f40888bc19e8
1c7bde37-0945-4140-a975-e9274416dc34,310,MDT,KMDT,40.193489,-76.763397,Harrisburg International Airport,12863,9773ba71-3c04-4c79-ad10-72433ff60c92
1c7be803-1d3e-49bf-820e-e2363d1cd193,760,QEZ,EDFZ,49.967499,8.147222,Mainz Finthen Airport,893,594ebc92-1f85-48f9-afa9-d38dfce203dc
1c8b772e-3951-4ca4-a6ac-a412f877e70c,95,SHS,ZHJZ,30.293116,112.44828,Jingzhou Shashi Airport,4460,2318baf2-5533-4c7d-9557-7836d772fe16
1c8efd45-6968-43ce-b671-cb9b0eeab4e6,1311,INJ,YINJ,-25.850721,148.549469,Injune Airport,219,74dbb39f-49d7-403a-bc53-6336f4f464b0
1c986f94-1c73-451f-a5a6-eb6b8ac8346c,3141,VRZ,SSOL,-21.24048,-44.963943,Lavras Airport,207,2ac1eb3b-27f0-41c5-a66b-144e58d8b0a3
1cb1d22c-b92c-48c5-9671-4b6710e6e915,4076,PTG,FAPP,-23.845301,29.458611,Polokwane International Airport,810,93e80140-88a0-4331-8049-4821e90fbe13
1cce195d-2663-470f-8ba2-1cf8a74cf3e0,6159,CYS,KCYS,41.155628,-104.809998,Cheyenne Regional Airport,3397,f3c23b0c-2d2f-435c-9a0b-9b8acdaf9972
1cd35775-8688-4ced-bed2-ea550c3ea3bc,34,LTO,MMLT,25.989189,-111.348,Loreto International Airport,833,e337926a-f7b7-4b17-ab19-072c3b1fb00a
1ce56864-dc45-412e-92b6-8af7e7357f8a,3557,YYC,CYYC,51.11388,-114.019997,Calgary International Airport,91378,67406582-7b03-4ccb-9a40-c78c34c1b8e7
1cf78bf6-4ade-4b32-a8eb-4c62ab68ee01,3556,ARM,YARM,-30.528334,151.616669,Armidale Airport,3567,b416741f-b90b-4dc4-b828-923ba6a04838
1cfa3fd4-7e0d-4ac5-a599-dd078ff35167,26,BQK,KBQK,31.258801,-81.4664,Brunswick Golden Isles Airport,2273,ad140584-bbb1-4ab6-b31f-c5e7e455cbfa
1d0ad126-25a7-444a-8e4b-cca0f42ebe6d,5227,KOM,AYXM,-6.062695,142.876663,Komo International Airport,107,37c0647f-e726-45b3-b924-970fe019c62a
1d142dc7-2d0d-43b1-8567-2e9a05d13293,542,NBJ,FNBJ,-9.053644,13.495178,Luanda Dr Antonio Agostinho Neto Airport,51,9bfacc21-6d5a-432a-940a-b818388f917d
1d1a3bc4-a3af-49ec-a9a1-84dfdb02bed0,53,BBP,EGHJ,50.678055,-1.109444,Bembridge Airport,582,cc9910af-3658-45a5-9e10-d6ac87b67859
1d2bed49-5fa2-4774-9de6-dac1eda4bec1,1313,MOR,KMOR,36.180321,-83.375557,Morristown Regional Airport,1769,93e87106-026b-4050-9b8b-5ad908195c65
1d2f719f-2e5c-462a-9a4e-f4f5c40e8d86,304,ZCO,SCQP,-38.930801,-72.653603,Temuco Airport,2953,7f05e278-bebc-4c5c-b70d-3863288dedb6
1d411dc2-9cff-4362-9ea2-220dd09df24d,531,IJK,USII,56.828049,53.4575,Izhevsk Airport,3277,14cbebf8-bd00-4084-99f3-f0a6e1962f06
1d46b18d-82e0-42fb-baa3-0273f8a52c46,36,MTR,SKMR,8.823678,-75.825897,Monteria Los Garzones Airport,5428,5c31cbcb-b3cc-4bdf-8395-9ccfac405159
1d671710-5983-4731-bf45-f51183eada31,25,CUM,SVCU,10.45033,-64.130402,Cumana Antonio Jose de Sucre Airport,92,284c077c-7431-4dd5-bc82-1f75e6053141
1d6e436a-e78e-4fef-b18d-179a19a8a090,215,YRB,CYRB,74.716942,-94.969398,Resolute Bay Airport,720,50e22edc-6ac7-4294-9629-c6674b51b42c
1d6ea0b3-ad17-4658-90ee-fabcaa881307,1115,GRZ,LOWG,46.991058,15.43962,Graz Airport,8792,72bd52ff-ffc2-44c4-a256-f29edea73e64
1d7023ef-92fa-4b8f-a246-67452cd7eb60,282,TYL,SPYL,-4.57663,-81.254097,Talara International Airport,595,b6ebd2a2-337d-4b0a-a6a2-30c60f1c9373
1d74e0fe-1279-46f8-bcc3-007a41a19441,538,PRH,VTCP,18.13216,100.164597,Phrae Airport,3,6bd1cc58-4d75-40b6-b24b-011c0d51a985
1d8053ca-02e4-4b24-a62c-942356566ac0,8,PTN,KPTN,29.710308,-91.340652,Patterson Harry P. Williams Memorial Airport,236,25b18a80-c514-4ae5-9cf2-c92d472446f9
1d87fa29-26a7-45c9-8bc4-28d99255d61e,9,BRR,EGPR,57.024841,-7.448879,Barra Airport,723,0dcf0fd6-e0ad-4cec-8ec5-cfd035406f5d
1d8def87-8a6d-44b3-a5c6-b147204ab456,325,YKS,UEEE,62.09325,129.770599,Yakutsk Airport,7849,3679a2d0-b788-44e5-9b2a-cc9663b789c0
1d903e30-cb61-4eca-959f-8ae6cc5cacc7,128,TGJ,NWWA,-21.0961,167.803802,Tiga Airport,0,37cf1554-bd39-400d-b32a-14b26d05e9e6
1dae35c6-0d68-49af-b3c0-f26372cb332f,44,BSG,FGBT,1.900837,9.804973,Bata Airport,1402,d1969839-0226-455a-8dea-8f17f171f5e2
1db186e7-b0a0-428c-9796-160e05fffc51,406,UBP,VTUU,15.25127,104.870201,Ubon Ratchathani Airport,3825,04fff84d-56a1-4cc8-9a52-43f030863f94
1db90d8e-db21-4731-8f6c-d4d157f52214,325,MTE,SNMA,-1.9958,-54.0742,Monte Alegre Airport,5,cae57429-2a12-4b0e-8dde-b0241dc2cfcb
1dc3f856-67e1-4e17-8829-6e79fc4ddd50,2230,YUE,YYND,-22.253267,131.781693,Yuendumu Airport,122,7c62ba19-bb91-4577-b15f-6979c673b9e4
1dc79241-9f6e-42af-b612-adb452c5d734,6264,TVL,KTVL,38.894169,-119.994446,South Lake Tahoe Airport,1594,0f4352ab-0f7a-4d09-894c-aea8642c06ef
1dca2700-581a-4787-8064-6b451025dcbe,1515,AGB,EDMA,48.425152,10.93176,Augsburg Airport,2294,38bb808e-c0db-4982-957d-3b22309b280e
1dd29ca8-d513-4c0d-8bde-a5f2f5e4d1a6,6193,CIG,KCAG,40.495201,-107.522003,Craig Moffat Airport,123,bb4038dc-2815-4f35-b86e-ea4387ec7b26
1dd29cbb-4fe4-4c1c-ab51-031744ee6787,1110,YOJ,CYOJ,58.62138,-117.164001,High Level Airport,873,4895eedd-0e75-4135-87a8-7460cd509511
1dfbbbf0-d25c-46cc-ab43-f9f12b60bf0e,4429,TII,OATN,32.866669,65.633331,Tarinkot Airport,1,35b5295a-983a-4d50-925f-4b9f9f9bda7a
1e1f45b1-43a4-466a-873f-e5206bd2c0c9,117,KUS,BGKK,65.573608,-37.1236,Kulusuk Airport,1169,a8f78427-2dd2-463e-8956-0e46458b9dfe
1e29c4a0-976f-43ca-b3df-0a6e7ff67e7d,4505,VXC,FQLC,-13.2739,35.266258,Lichinga Airport,177,7115ab5b-8a6a-48fd-910d-6bcfb74e0128
1e2c7304-9522-4fb9-a75b-c5140e1621d3,396,ORE,LFOZ,47.897499,2.164167,Orleans Saint-Denis-de-l'Hotel Airport,1047,655842cc-bb94-48ba-89bf-7140f29aecf8
1e2ef11c-8b56-450e-84dc-64fc0e3fbb67,521,CRV,LIBC,38.997219,17.08016,Crotone Airport,1283,0592c8dc-65ed-478e-8490-3cc8e5b76e47
1e35af53-68b7-4878-837f-690af3652732,38,KTS,PFKT,65.331299,-166.466003,Brevig Mission Airport,734,09bdb584-5110-447e-9f27-a810119d2160
1e41f2bf-22e9-49ac-801e-36c02d5b9357,989,WEA,KWEA,32.744705,-97.682434,Weatherford Parker County Airport,1285,cfab485e-1a66-4d33-9db7-38ef2a1c94ff
1e535bd6-0f36-4351-9aa1-589e5994182f,39,PBR,MGPB,15.7309,-88.583801,Puerto Barrios Airport,256,fd49f882-7884-47ce-85f1-243b20a8cdc9
1e682816-0ab2-4188-96ea-019e01d4a145,298,OZR,KOZR,31.277718,-85.71273,Daleville Cairns Army Airfield,6154,0eb85204-2144-4b52-8204-685874639775
1e6d97e1-2a5b-49be-b14a-8a006f5ff544,70,KPO,RKTH,35.98785,129.420395,Pohang Airport,1049,08e28243-fc3c-437f-8cdc-f08382a23e1f
1e7520ce-e635-4f73-aaf3-672aa4a484b5,20,VCS,VVCS,8.7325,106.628891,Con Dao Airport,3711,389d1984-22fd-4f80-8149-8f365e705a98
1e7bbd76-4313-490b-8efa-6aa722156253,236,AAC,HEAR,31.04661,33.814857,El Arish International Airport,36,54ca76c0-b1a4-47cf-9544-7209b4904093
1e8b7a9e-43f2-494e-9465-d19ba08369ab,1417,JCL,LKCS,48.946388,14.428056,Ceske Budejovice Airport,559,b4308480-00bc-4cda-bf97-0ec6076efcd7
1e99854d-2b19-4ed9-a15c-14aae51e8ff0,1942,PNQ,VAPO,18.582109,73.919693,Pune Airport,30672,47eb38d1-f633-4907-9270-2a11c2e8798f
1ea8ce9b-84e6-40fd-adf4-912a4f944232,647,BTT,PABT,66.91394,-151.529007,Bettles Airport,661,a264454b-1ff4-4f97-a687-e205dbe02230
1ec17fcd-4ecb-4dbc-8501-767260b8af4d,26,SIO,YSMI,-40.836151,145.083374,Smithton Airport,37,0493b761-9351-4d5c-aa62-5c8069068b2a
1ec1f08e-c831-4ad8-ab8d-19fe3112a57c,135,BOJ,LBBG,42.56958,27.51523,Burgas Airport,12055,edd32cee-98ba-44c5-b0dd-96ddd45031f2
1ee63985-0d70-4486-ae73-ee6e0810d5b1,20,UNA,SBTC,-15.353333,-38.997223,Una Comandatuba Airport,126,e4de9a34-c14f-47e1-bb83-fdcca3a86aeb
1ef03307-c469-4ca3-a70b-e1d38acbe4b3,710,FTW,KFTW,32.819771,-97.362396,Fort Worth Meacham International Airport,20652,2c56acde-e829-4846-b190-84e962da5f4d
1f0fadce-4971-4068-bfd0-71caa72fb8a8,213,QEP,EDLD,51.616013,6.861155,Hunxe Schwarze Heide Airport,995,9923f8a0-1688-448e-a9a3-f0a80e79f6ea
1f1face0-a09b-41e5-a458-6f842339e193,1101,EIB,EDGE,50.992779,10.472778,Eisenach Kindel Airport,291,4de27190-50c4-4cf3-99d9-d8b1eb010086
1f21ee16-acdb-4ca4-bace-e9d190535d8f,1280,THL,VYTL,20.483829,99.935349,Tachilek Airport,1997,c43c23d9-e974-4e78-8031-0f7dd013a31f
1f240564-9e1c-4f82-9841-a567049180b8,152,FJR,OMFJ,25.112221,56.323959,Fujairah International Airport,441,57ae248f-e7c2-4764-978c-f597d764d57f
1f290480-6736-4d44-976b-29fa5f72d7bc,7,LGO,EDWL,53.7425,7.497778,Langeoog Airport,400,293aa5f8-cb01-419e-8c02-e88ed09f23a8
1f2dce01-6287-4d3c-bb79-24f77d8b6667,48,RKV,BIRK,64.12999,-21.9405,Reykjavik Airport,5895,93407441-a35b-48ba-bac5-3d6140d5dd34
1f383d8b-dd76-40a2-ab86-934e19768c49,82,FRG,KFRG,40.728889,-73.41333,Farmingdale Republic Airport,17639,b888b0a7-99f2-4dcb-aaf5-e43fc2527c61
1f3c94a3-d9ba-4b16-95fd-bf557308c16c,76,MVF,SBMS,-5.20192,-37.3643,Mossoro Airport,345,df844bfa-8312-414d-a23c-4e40c68d19ad
1f55493a-40ed-4a42-8879-8363f7eb617c,1625,CTU,ZUUU,30.57852,103.946999,Chengdu Shuangliu International Airport,104529,8b6da457-9397-4eb6-b568-4827ac46a637
1f648c4e-4b9b-49f7-bc29-0647633061ea,92,GZP,LTFG,36.299,32.299999,Gazipasa Airport,4294,c5c6e122-cafd-4ddd-ac8f-407344dcede7
1f6ddd4a-4a3c-4916-90e1-a7c5f83a7e33,1749,ATY,KATY,44.913971,-97.154701,Watertown Regional Airport,2233,f6e8df61-34ee-41cd-9383-dced5dd2b9b3
1f7e8f7a-38a0-4c28-b173-c015030bea2c,4619,UCB,ZBUC,41.129723,113.108055,Ulanqab Jining Airport,10,f24a8359-a005-43c2-ba92-78543bd28903
1f989d56-7b25-4542-b629-b33a5a105769,15,TGC,WBTM,2.177778,111.201942,Tanjung Manis Airport,301,a8e4dc8e-ef3c-4fee-a6ec-692b5f207f15
1f99d6a7-5b9c-496e-a501-18bbc2890308,1083,THA,KTHA,35.3801,-86.246399,Tullahoma Regional Airport,1439,220ff3a1-f437-4203-ad87-56ec2ef12aa2
1fab26ad-bd20-4727-86a7-c931441ba4bf,1199,LBE,KLBE,40.274601,-79.4067,Latrobe Arnold Palmer Regional Airport,5153,07c37880-3850-4602-99b4-07ba5f478d1e
1fcba05e-4574-4ab0-b9c8-439187686a9f,97,FRL,LIPK,44.194752,12.07009,Forli Airport,1252,7299237a-ac42-4e3d-b498-38a6abb4011e
1fd0bf9a-71fa-456e-88fa-83920487d971,5429,SXR,VISR,33.987129,74.774246,Srinagar Airport,13154,0e55a2d6-fa75-407b-808f-56b73f86fc90
1fe35d8f-19ae-4ff5-9cc9-6b05518a61bd,1190,HKY,KHKY,35.741138,-81.389503,Hickory Regional,3145,b65161c8-1d41-460b-80a4-26c9f1ba8105
1fe65609-2511-44b5-a603-8e3dbddee1a4,288,BZZ,EGVN,51.749962,-1.58361,RAF Brize Norton,1242,9e91917f-bcd5-4329-a20a-71c3a612a34f
201e70b0-ecf9-4253-af51-a220edaa3ecb,1819,BBD,KBBD,31.179539,-99.324631,Brady Curtis Field Airport,200,58db85a2-9d6a-4475-ba81-4ee6d7f86d6d
202197d6-f0b8-42df-9b9b-db130143d471,66,EJH,OEWJ,26.198334,36.476112,Al Wajh Airport,3,8c90c444-eb27-4b59-a3e8-c86122bd111a
2027a7c8-34f9-4ffb-bb9c-f3a7df34a108,42,KGD,UMKK,54.890049,20.59263,Kaliningrad Khrabrovo Airport,19234,eb97c87f-f61a-4962-acb5-9f2039672625
2036c221-5224-439f-aecf-96dbce1a6086,256,URG,SBUG,-29.782101,-57.038101,Uruguaiana Ruben Berta International Airport,202,af64b59d-1569-43ac-a2e5-53c58f60eed1
203d1b3d-ea34-497f-b5fe-8cef67bf588e,313,LEH,LFOH,49.533878,0.088056,Le Havre Octeville Airport,584,672b66b1-3379-48a0-9bd6-c96bbbb33bd9
20428f14-cfcd-4a04-a614-11eaa4b19933,238,FBG,KFBG,35.131908,-78.936401,Fort Liberty Simmons Army Airfield,415,60112e23-7c54-4784-864a-d27de099dee3
20463865-6fda-495d-b074-ca744b1879cd,191,INM,YINN,-27.698063,140.739273,Innamincka Airport,27,0edeabb6-1c9b-43b2-bffd-81693647d9ab
2054cf3c-bf77-4c88-bb72-7612cfd32e88,23,STT,TIST,18.337299,-64.973297,St. Thomas Cyril E. King Airport,15355,d06f4d73-fdf1-4949-8e1c-3d068ded8223
20647020-7492-412f-8cf5-d37b959ee08d,23,LAK,CYKD,68.223297,-135.005997,Aklavik Airport,505,ac4725b9-7b1c-4edf-8c07-818522826c9f
2064d699-ec50-4d24-950b-e9050ac50b20,57,UNN,VTSR,9.7775,98.585281,Ranong Airport,272,1c36135a-bbcb-4127-b8ac-690ad765d4d1
2064f1a8-054f-4f1b-87fd-c8c2c9958092,1001,AJL,VELP,23.838442,92.620361,Aizawl Lengpui Airport,1837,12258993-3135-446b-a5fb-ef59d70bb87a
2095b6cc-ea4a-4e68-893f-542980c351f6,40,BAR,ZJQH,19.13969,110.455772,Qionghai Bo'ao Airport,2426,db54bfe5-43b1-4a42-b99b-724f8d2d5948
20a90b33-57fa-48e1-b76c-5ccc01c425ae,430,BGS,UNKB,58.380486,97.472481,Boguchany Airport,0,f060ff7f-a44d-4bcc-97d5-b5defe0818f0
20aa8b53-e791-4f90-aba3-77a2c9d4130d,38,YMH,CYMH,52.302799,-55.847198,Mary's Harbour Airport,180,10847542-f3ce-405b-8bdb-1505a8c079d9
20ab06c1-6ab5-4cda-97d9-de35d14aab7c,648,INI,LYNI,43.33728,21.85372,Nis Constantine the Great Airport,1695,ce3dc062-56fe-4527-b692-1f2023789300
20aed6da-e0a5-4cbf-9810-a68a4225f00e,14,PHK,KPHK,26.784588,-80.693291,Pahokee Palm Beach County Glades Airport,2205,b64ebfaa-70df-4554-9621-8da2df855642
